id,name,lanes,road_capacity_from_conversion,highway,oneway,distance,road_capacity,point_lat,point_lon
4794199,Rascarrabias,,1,residential,,0.521908177154,1.04381635431,19.3833981,-99.1524458,19.3833981,-99.1524458,19.3832998,-99.1518752,19.3832189,-99.1514289,19.3830812,-99.150665,19.382976,-99.1500814,19.3828273,-99.1493741,19.3825792,-99.1480815,19.3824814,-99.1475727
4758877,División del Norte,2,3,secondary,yes,0.0317622706676,0.0952868120027,19.4000042,-99.1701981,19.4000042,-99.1701981,19.4001547,-99.1702464,19.4002819,-99.1702726
4847859,Tenancingo,1,1,residential,yes,0.168131147047,0.168131147047,19.4138448,-99.1728893,19.4138448,-99.1728893,19.4124924,-99.1736179
4841034,Ixcateopan,,1,residential,yes,0.963262537677,0.963262537677,19.3825338,-99.156748,19.3825338,-99.156748,19.3808648,-99.1571203,19.3791347,-99.1575587,19.3780079,-99.1578009,19.3761615,-99.1582539,19.3757786,-99.158331,19.3740443,-99.158757
4841049,Tenayuca,,1,residential,yes,0.782637036678,0.782637036678,19.3741089,-99.1595477,19.3741089,-99.1595477,19.3763331,-99.1590308,19.3771848,-99.1587349,19.3774369,-99.1586645,19.3784147,-99.1583556,19.3792106,-99.1581644,19.3805932,-99.1578365,19.380971,-99.1577884
4841571,Filomeno Mata,,1,pedestrian,,0.310594235006,0.621188470013,19.4366753,-99.1388658,19.4366753,-99.1388658,19.435862,-99.1390173,19.4339158,-99.1394007
4830522,Zitacuaro,1,1,residential,yes,0.118778482229,0.118778482229,19.408734,-99.1794465,19.408734,-99.1794465,19.4097546,-99.1790974
4847862,Celaya,1,1,residential,yes,0.19653202673,0.19653202673,19.4137745,-99.1660537,19.4137745,-99.1660537,19.4140882,-99.1667103,19.4141487,-99.166837,19.414647,-99.1676812
4808866,Sevilla,,3,primary,yes,0.334439937735,1.0033198132,19.424877,-99.1714825,19.424877,-99.1714825,19.4246305,-99.1713691,19.4245909,-99.1713496,19.424075,-99.1710953,19.4233454,-99.170709,19.42253,-99.1702847,19.4222943,-99.1702475,19.4222613,-99.1702423,19.4221238,-99.1702071
4842149,Matías Romero,,1,residential,yes,1.35243336535,1.35243336535,19.3789707,-99.1599705,19.3789707,-99.1599705,19.3790516,-99.1603825,19.3790996,-99.1605756,19.3792832,-99.1613082,19.3796004,-99.1627947,19.3797507,-99.1635309,19.3799076,-99.1642458,19.3800981,-99.1650072,19.3801325,-99.1651675,19.3802343,-99.1657173,19.3804352,-99.1665039,19.380582,-99.1671939,19.3807043,-99.1678901,19.3808739,-99.1686356,19.381096,-99.1694922,19.3811785,-99.1697923,19.38132,-99.1703628,19.3815318,-99.1713523,19.3815501,-99.1719744,19.3814813,-99.1725201
4842166,Luz Saviñon,,1,residential,yes,2.06478685103,2.06478685103,19.3893357,-99.1467465,19.3893357,-99.1467465,19.3894334,-99.1474329,19.3895048,-99.1479074,19.3896343,-99.14874,19.3897153,-99.1494181,19.3897365,-99.1495842,19.3897963,-99.1500532,19.3898853,-99.1507227,19.3899886,-99.1513643,19.3900081,-99.1514868,19.3901201,-99.1521904,19.3901453,-99.1523657,19.3901687,-99.1525289,19.3902173,-99.1528513,19.3902982,-99.1534779,19.3903954,-99.154113,19.3905168,-99.1549026,19.390614,-99.155615,19.3907884,-99.1564391,19.3908703,-99.1572652,19.390994,-99.1579607,19.391099,-99.1586386,19.3911894,-99.1592537,19.3912076,-99.1593631,19.3912886,-99.1599869,19.3914622,-99.1607759,19.3915978,-99.1614227,19.3919502,-99.1628919,19.3922568,-99.1643611,19.3925817,-99.165833,19.3926247,-99.1659852,19.3926556,-99.16607
4780729,Casa del Obrero Mundial,,3,secondary,yes,0.26213978431,0.786419352929,19.4006542,-99.1661989,19.4006542,-99.1661989,19.4008288,-99.1653376,19.4010585,-99.1637409
4783806,Av. Presidente Plutarco Elías Calles,,3,secondary,yes,0.717467316727,2.15240195018,19.3572494,-99.1396008,19.3572494,-99.1396008,19.3573251,-99.1396643,19.3574304,-99.1397158,19.3575761,-99.1397158,19.3578919,-99.1396299,19.3582527,-99.1395439,19.3584232,-99.1395032,19.3595604,-99.1392395,19.3635627,-99.1383646
4758720,Av. Río Mixcoac,,4,trunk,yes,0.523340677566,2.09336271026,19.3620293,-99.1743409,19.3620293,-99.1743409,19.3620941,-99.1744075,19.3623406,-99.1746382,19.3624578,-99.174748,19.3641816,-99.1766047,19.3644231,-99.1768758,19.3646572,-99.177141,19.365181,-99.1776661,19.365378,-99.1778543
4841161,Búfalo,,1,residential,yes,0.248217268846,0.248217268846,19.3709734,-99.1769011,19.3709734,-99.1769011,19.3731366,-99.176279
4780750,,,3,primary_link,yes,0.169554305325,0.508662915975,19.3616635,-99.1706351,19.3616635,-99.1706351,19.3618878,-99.1705915,19.3626283,-99.1702515,19.3629084,-99.1700737,19.3630661,-99.1700101
4754640,Av. Dr. José Maria Vertiz,,3,secondary,yes,0.883350540208,2.65005162062,19.3671755,-99.1557509,19.3671755,-99.1557509,19.3675888,-99.1555926,19.3687812,-99.1552865,19.3700221,-99.1550035,19.371286,-99.1547421,19.3725664,-99.1544985,19.3735627,-99.1542888,19.3749694,-99.1539736
4841180,Cerrada Félix Cuevas,,1,residential,,0.16921819303,0.33843638606,19.3731366,-99.176279,19.3731366,-99.176279,19.37318,-99.1762259,19.3745989,-99.1758539
4803293,,,1,pedestrian,,0.0321627538941,0.0643255077883,19.4051723,-99.1690321,19.4051723,-99.1690321,19.405442,-99.169146
4841183,Oso,,1,residential,yes,0.454440438507,0.454440438507,19.3735623,-99.178202,19.3735623,-99.178202,19.3716997,-99.1788385,19.3714611,-99.1789266,19.370206,-99.1793367,19.3698648,-99.1793912,19.3696422,-99.1794712
4847840,Durango,2,2,tertiary,yes,0.883415400121,1.76683080024,19.4199931,-99.1667708,19.4199931,-99.1667708,19.4196623,-99.1681341,19.4193466,-99.1696104,19.419062,-99.1709338,19.4188137,-99.1721941,19.4187754,-99.1723544,19.4187536,-99.1724341,19.418427,-99.1739238,19.4182265,-99.1748172,19.4181759,-99.174959
4847841,Plaza Madrid,,2,tertiary,,0.179133684734,0.716534738937,19.4202931,-99.1666144,19.4202931,-99.1666144,19.420208,-99.1666952,19.4201055,-99.1667486,19.4199931,-99.1667708,19.41982,-99.1667407,19.4197091,-99.16667,19.4196994,-99.1666638,19.4196289,-99.1665813,19.4196239,-99.1665715,19.4195824,-99.16649,19.4195533,-99.166346,19.4195699,-99.1661999,19.4196306,-99.1660674,19.4197287,-99.1659632,19.4198148,-99.1659129,19.4199096,-99.1658853
4803298,Tlaxcala,1,1,residential,,0.379519722633,0.759039445266,19.4063605,-99.1718003,19.4063605,-99.1718003,19.4063619,-99.1717903,19.406496,-99.1708253,19.4067146,-99.1694177,19.406846,-99.1687773,19.4069117,-99.1684571,19.4069587,-99.168244
4847843,Oaxaca,3,3,primary,yes,0.0379676143735,0.113902843121,19.4162307,-99.1696609,19.4162307,-99.1696609,19.4164882,-99.1694221
4780772,Viaducto,3,4,motorway,yes,0.504372799071,2.01749119628,19.3985461,-99.1747861,19.3985461,-99.1747861,19.3983736,-99.175224,19.3982113,-99.1757749,19.3980757,-99.1762422,19.3977776,-99.1775168,19.3976999,-99.1779052,19.3975881,-99.1783138,19.3974914,-99.1787291,19.3973566,-99.1791039,19.3972039,-99.1793556
4780774,Barranca del Muerto,,3,secondary,yes,1.44815675619,4.34447026857,19.3632924,-99.1959253,19.3632924,-99.1959253,19.3633826,-99.1956165,19.3635161,-99.1949842,19.3637672,-99.1937955,19.3638023,-99.1935056,19.3637987,-99.1931072,19.3636953,-99.1925549,19.3635013,-99.1915188,19.3633324,-99.1909431,19.3631066,-99.1901231,19.3628895,-99.189198,19.3628765,-99.189053,19.3628864,-99.1880383,19.3628499,-99.1879611,19.3620391,-99.1867849,19.3618444,-99.1862519,19.3615954,-99.1855799,19.3616313,-99.1852513,19.3616312,-99.1851102,19.3616285,-99.1849743,19.361655,-99.1847518,19.3616303,-99.1843223,19.3616115,-99.1839533,19.3616847,-99.1835948,19.3617281,-99.1835081,19.3619079,-99.1832643,19.3621478,-99.1828586
4780776,Sevilla,,1,residential,yes,0.308358725087,0.308358725087,19.3601304,-99.1532277,19.3601304,-99.1532277,19.3604457,-99.1531825,19.3615491,-99.1529904,19.362886,-99.1528
4780777,Azores,,1,residential,yes,0.994269282251,0.994269282251,19.3663118,-99.155208,19.3663118,-99.155208,19.3674764,-99.1549215,19.3686872,-99.154702,19.3699573,-99.1544714,19.3712137,-99.1542369,19.3724917,-99.154062,19.3734622,-99.1538172,19.3745148,-99.1535597,19.3751232,-99.1534071
4847850,Veracruz,1,2,tertiary,yes,0.719113211508,1.43822642302,19.4158487,-99.1716864,19.4158487,-99.1716864,19.4158499,-99.1716885,19.4163101,-99.1724761,19.4168525,-99.1732829,19.4171196,-99.1736348,19.4180203,-99.1748006,19.4181759,-99.174959,19.41886,-99.175523,19.4196592,-99.1761611,19.4200915,-99.176486,19.4202049,-99.1765203,19.4202867,-99.1764868
4803308,Aguascalientes,1,1,residential,,0.612163002739,1.22432600548,19.4081415,-99.1677228,19.4081415,-99.1677228,19.4081122,-99.1678694,19.4077508,-99.1696752,19.4074918,-99.1710399,19.4073178,-99.1720731,19.4073164,-99.1720812,19.4073,-99.1721856,19.4072995,-99.172189,19.407284,-99.1722872,19.4071243,-99.1734499
4803309,Culiacán,1,1,residential,,0.639583028561,1.27916605712,19.4091979,-99.1714819,19.4091979,-99.1714819,19.4083105,-99.1712991,19.4074918,-99.1710399,19.406496,-99.1708253,19.4058572,-99.1706694,19.4044649,-99.1703502,19.4035801,-99.1700778
4780782,16 de Septiembre,,1,pedestrian,no,0.722879820288,1.44575964058,19.4319891,-99.1343008,19.4319891,-99.1343008,19.4319501,-99.1343967,19.4319744,-99.1346541,19.4319992,-99.1348753,19.432059,-99.1354075,19.4321774,-99.1362971,19.4321993,-99.1364618,19.4323324,-99.1374934,19.4324629,-99.1385048,19.4325976,-99.1395722,19.4327112,-99.1405213,19.4327781,-99.1410805,19.4327826,-99.1411185
4847855,Atlixco,1,1,residential,,0.948264085371,1.89652817074,19.4163101,-99.1724761,19.4163101,-99.1724761,19.41615,-99.1725654,19.4153886,-99.1729904,19.4147815,-99.1733166,19.4142404,-99.173693,19.4128844,-99.174409,19.4115886,-99.1752018,19.4115225,-99.1752393,19.4114735,-99.1752643,19.4104141,-99.1758403,19.4103071,-99.1759013,19.4087594,-99.1767292
4847856,Puerto Real,1,1,residential,,0.194910836603,0.389821673206,19.4091824,-99.1775777,19.4091824,-99.1775777,19.4107548,-99.1767426
4847858,Parral,1,1,residential,yes,0.305955692422,0.305955692422,19.4116038,-99.1746496,19.4116038,-99.1746496,19.412686,-99.1740086,19.4140374,-99.1732695
4780787,Ribera de San Cosme,,4,trunk,yes,1.15229804938,4.6091921975,19.4398732,-99.1557279,19.4398732,-99.1557279,19.4403135,-99.1568268,19.4407158,-99.1577652,19.4408901,-99.1581,19.4410795,-99.1584954,19.441489,-99.159511,19.441499,-99.1595358,19.4418801,-99.1604705,19.4423306,-99.1615802,19.442654,-99.1625419,19.4427752,-99.1630679,19.4429172,-99.1636965,19.4431705,-99.1648109,19.4432231,-99.1648889,19.4432721,-99.1649971,19.4435806,-99.1655556,19.4437855,-99.1658374
4780788,Balderas,,2,tertiary,yes,0.0549114853551,0.10982297071,19.4367896,-99.1470094,19.4367896,-99.1470094,19.4362992,-99.1470881
4847861,Plaza Popocatépetl,1,1,residential,yes,0.196773359612,0.196773359612,19.4145114,-99.1678808,19.4145114,-99.1678808,19.4145635,-99.1677594,19.414647,-99.1676812,19.414744,-99.1676445,19.4148469,-99.1676467,19.4149292,-99.1676794,19.4150133,-99.1677561,19.4150681,-99.1678824,19.41507,-99.1679897,19.4150325,-99.1680978,19.4149397,-99.1681975,19.4148041,-99.1682425,19.4147155,-99.1682325,19.4146397,-99.1681976,19.4145783,-99.1681431,19.4145194,-99.1680346,19.4145114,-99.1678808
4754678,Tintoreto,,3,secondary,yes,0.0256379733646,0.0769139200938,19.3851486,-99.1849821,19.3851486,-99.1849821,19.3850733,-99.1850786,19.38501,-99.1851773
4780791,Prolonga Guerrero,,3,secondary,yes,0.484197159364,1.45259147809,19.4605033,-99.1439878,19.4605033,-99.1439878,19.459625,-99.1441669,19.4591607,-99.1442721,19.4586868,-99.1443794,19.4582448,-99.1444796,19.4580806,-99.1445168,19.4576986,-99.1446033,19.4570386,-99.1447528,19.4563846,-99.144901,19.4562235,-99.1449391
4780792,Venustiano Carranza,,1,residential,yes,1.37491514719,1.37491514719,19.4320056,-99.1412129,19.4320056,-99.1412129,19.4319261,-99.140644,19.4317882,-99.1396581,19.4316263,-99.1386109,19.4313548,-99.1366005,19.4312253,-99.1355277,19.4310777,-99.1345042,19.4309426,-99.1335952,19.4309266,-99.1334795,19.4307945,-99.1325214,19.4307762,-99.1323885,19.4307721,-99.1323591,19.4306856,-99.1314901,19.4306457,-99.1312012,19.4305938,-99.1308827,19.4305083,-99.1302949,19.430442,-99.1297777,19.4303606,-99.1292027,19.4302075,-99.1282602
4847865,Huichapan,1,1,residential,yes,0.175041710741,0.175041710741,19.4163835,-99.1689608,19.4163835,-99.1689608,19.4157273,-99.1685708,19.4156139,-99.1684763,19.4150325,-99.1680978
4847866,Mexicali,,1,residential,yes,0.432024949659,0.432024949659,19.4076159,-99.1721499,19.4076159,-99.1721499,19.407666,-99.172278,19.4076675,-99.1722818,19.4079883,-99.1731026,19.408387,-99.173971,19.4086563,-99.1745614,19.4089477,-99.1751708,19.4092674,-99.175875
4847867,Ometusco,2,1,residential,yes,0.285339215936,0.285339215936,19.4093085,-99.1725089,19.4093085,-99.1725089,19.4092814,-99.1726352,19.4092763,-99.1726375,19.4088514,-99.1728258,19.4087486,-99.17286,19.4079883,-99.1731026,19.4071243,-99.1734499,19.4069698,-99.1734992
4847870,Saltillo,2,1,residential,yes,0.506805157884,0.506805157884,19.4048179,-99.1753432,19.4048179,-99.1753432,19.4048849,-99.1753117,19.405034,-99.1752417,19.4057409,-99.1749851,19.4066994,-99.1746626,19.4068249,-99.174627,19.4074235,-99.1744165,19.4075797,-99.1743631,19.408387,-99.173971,19.4090781,-99.1736042
4847871,Sultepec,1,1,residential,,0.213059553801,0.426119107602,19.40668,-99.1741256,19.40668,-99.1741256,19.406552,-99.1741667,19.405755,-99.174456,19.4048589,-99.1747819
4847872,Etla,1,1,residential,yes,0.144445849017,0.144445849017,19.4057254,-99.1755342,19.4057254,-99.1755342,19.4068292,-99.1750993,19.4069501,-99.1750602
4847873,Cholula,2,1,residential,yes,0.677258504165,0.677258504165,19.4106543,-99.1735284,19.4106543,-99.1735284,19.4095165,-99.1741554,19.4094269,-99.1741971,19.4086563,-99.1745614,19.4078874,-99.1749804,19.4077425,-99.1750615,19.4070566,-99.1754288,19.4069412,-99.1754758,19.4057123,-99.1759797,19.4053143,-99.176136,19.4051077,-99.1762314
4847875,Ensenada,1,1,residential,yes,0.667431366421,0.667431366421,19.405623,-99.1770718,19.405623,-99.1770718,19.4060443,-99.1769126,19.4071493,-99.1761759,19.4072542,-99.1761122,19.4080384,-99.1756595,19.4081839,-99.175575,19.4089477,-99.1751708,19.4097255,-99.1747951,19.4098339,-99.1747393,19.4109542,-99.1741269
4847877,Choapan,,1,residential,yes,0.298497077085,0.298497077085,19.4057058,-99.1760685,19.4057058,-99.1760685,19.405887,-99.1764761,19.4060443,-99.1769126,19.4062956,-99.1773286,19.4065407,-99.177751,19.406878,-99.1783655,19.4069152,-99.1783961,19.4070785,-99.178355
4754704,Av. Presidente Plutarco Elias Calles,,3,primary,yes,1.85994573577,5.57983720732,19.3940359,-99.1316039,19.3940359,-99.1316039,19.394521,-99.1315037,19.3955815,-99.1312884,19.3961894,-99.131149,19.3966427,-99.1308862,19.3967075,-99.1308486,19.3972095,-99.1303851,19.3973464,-99.1302412,19.397509,-99.1299988,19.3976709,-99.129501,19.3977924,-99.1291234,19.3977924,-99.1288745,19.3978241,-99.1282309,19.3979062,-99.1267807,19.3980175,-99.1239456,19.3980353,-99.1237418,19.3980461,-99.1229823,19.3980536,-99.1227816,19.3980595,-99.1221024,19.3982114,-99.1164924
4803353,Avenida México,1,1,residential,yes,0.590265104354,0.590265104354,19.4102478,-99.1702798,19.4102478,-99.1702798,19.4102846,-99.1699584,19.4103494,-99.1696924,19.4105518,-99.1693405,19.4107946,-99.1690486,19.4110798,-99.1687907,19.4112884,-99.1686109,19.4117337,-99.1683706,19.4119996,-99.1682614,19.4130799,-99.1679431,19.4132178,-99.1679013,19.4134822,-99.1678298,19.4140084,-99.1677955,19.4145114,-99.1678808
4754716,Av Ramos Millan,,3,primary,yes,0.780671700301,2.3420151009,19.3828144,-99.140084,19.3828144,-99.140084,19.3830636,-99.1414403,19.3830725,-99.1414984,19.3830877,-99.1415963,19.3830933,-99.1416305,19.3831532,-99.1421598,19.3832308,-99.1426355,19.3833468,-99.1433358,19.3833983,-99.1436816,19.3834171,-99.1438027,19.3835884,-99.1449068,19.3836165,-99.1450864,19.3836974,-99.1456028,19.3837411,-99.1458821,19.3838923,-99.1467371,19.3839921,-99.1474099
4754718,San Borja,,1,residential,yes,2.68081534411,2.68081534411,19.3808506,-99.1478133,19.3808506,-99.1478133,19.3809801,-99.148397,19.381223,-99.1497188,19.3814416,-99.1509805,19.3816036,-99.1517444,19.3817007,-99.152225,19.3817707,-99.1527719,19.3817946,-99.1529179,19.381926,-99.1535075,19.3820367,-99.1541154,19.3821527,-99.1547177,19.3822444,-99.1553136,19.3823901,-99.1560088,19.382393,-99.1560466,19.3825338,-99.156748,19.3825586,-99.1568547,19.3825986,-99.1570265,19.3826278,-99.1571882,19.3828253,-99.1580306,19.3830136,-99.1588069,19.3832079,-99.159588,19.3833646,-99.1602781,19.3833825,-99.160361,19.3834141,-99.1605071,19.3834928,-99.1609615,19.3835026,-99.1610181,19.3835129,-99.1610777,19.3837386,-99.1617972,19.3839005,-99.1625345,19.3840741,-99.1632755,19.38422,-99.1639946,19.384389,-99.1647553,19.3845752,-99.1654664,19.3847345,-99.1662095,19.3849019,-99.1669617,19.3849952,-99.1676324,19.385381,-99.169054,19.3855127,-99.1690687,19.3855939,-99.1691815,19.3855683,-99.1692905,19.385513,-99.1693715,19.3854728,-99.1694959,19.3855451,-99.1697773,19.3856622,-99.1703085,19.3858547,-99.1709704,19.3861113,-99.1716171,19.386366,-99.172223,19.386531,-99.1723493
4754719,Mitla,,1,residential,yes,1.39182301319,1.39182301319,19.3924325,-99.1498518,19.3924325,-99.1498518,19.3917964,-99.1499032,19.3905064,-99.1500073,19.3902815,-99.1500208,19.3898093,-99.1500492,19.3897963,-99.1500532,19.3883277,-99.1501779,19.3862137,-99.1503429,19.3854373,-99.1504183,19.3843524,-99.1505384,19.3830812,-99.150665,19.3822918,-99.1508088,19.3814416,-99.1509805,19.3806886,-99.1511521,19.3799469,-99.1512829
4754720,Serafín Olarte,,1,residential,,1.1507120535,2.301424107,19.3810015,-99.1529007,19.3810015,-99.1529007,19.3809084,-99.1524211,19.3808263,-99.1519504,19.3806886,-99.1511521,19.3804296,-99.1498647,19.3801705,-99.1485858,19.3800571,-99.147985,19.3799301,-99.1472887,19.3798029,-99.1465912,19.3796846,-99.1460002,19.3795106,-99.1451311,19.3794238,-99.1445942,19.3793414,-99.144085,19.3792201,-99.1434431,19.3790884,-99.1427466,19.3790026,-99.1422927,19.3789757,-99.1421578
4754724,Cuauhtémoc,3,3,primary,yes,2.40844209525,7.22532628574,19.4259665,-99.1536724,19.4259665,-99.1536724,19.4258323,-99.1536884,19.4257543,-99.153704,19.4256161,-99.1537097,19.4256111,-99.1537099,19.4253397,-99.1537371,19.424357,-99.1538284,19.4235338,-99.1539032,19.4225857,-99.1539618,19.4213039,-99.1540629,19.4197434,-99.1541783,19.4194983,-99.1541942,19.419277,-99.1542111,19.4186039,-99.1542609,19.4178121,-99.1543397,19.4176977,-99.1543473,19.4168621,-99.1544281,19.415957,-99.1545018,19.4150447,-99.1545722,19.4149884,-99.1545764,19.4141894,-99.1546197,19.4139155,-99.154644,19.4129862,-99.1547299,19.4128389,-99.1547435,19.4117845,-99.1548395,19.4104656,-99.1549373,19.4085551,-99.1550746,19.4074674,-99.1551773,19.4065637,-99.155236,19.4063767,-99.1552173,19.4053143,-99.1553059,19.4042744,-99.1553774
4830510,Citlaltépetl,,1,residential,,0.0991449644851,0.19828992897,19.4104809,-99.1708425,19.4104809,-99.1708425,19.4096753,-99.171255
4830518,Laredo,,1,residential,yes,0.163155177445,0.163155177445,19.4131324,-99.1715363,19.4131324,-99.1715363,19.4131322,-99.1715359,19.4128432,-99.1708773,19.4127969,-99.1707423,19.4125978,-99.1700915
4830519,Parras,,1,residential,yes,0.16523049403,0.16523049403,19.4137979,-99.1695035,19.4137979,-99.1695035,19.4142135,-99.1700213,19.4143019,-99.1701268,19.4147673,-99.1706826,19.4147754,-99.1706923
4803385,Iztaccihuatl,,1,residential,,0.18410544756,0.36821089512,19.4082107,-99.167838,19.4082107,-99.167838,19.4089327,-99.1683448,19.409627,-99.1687544
4780858,,,3,secondary,yes,0.639377902308,1.91813370692,19.4176125,-99.102301,19.4176125,-99.102301,19.417477,-99.1023415,19.417383,-99.1024109,19.4163793,-99.103215,19.4151292,-99.1042217,19.4150596,-99.1042807,19.4139895,-99.1051645,19.4131056,-99.1059007,19.4130267,-99.1059829
4830524,Fernando Montes de Oca,2,1,residential,yes,0.8874862808,0.8874862808,19.4154855,-99.1795993,19.4154855,-99.1795993,19.4150546,-99.1787885,19.4148628,-99.1784015,19.4146703,-99.1780131,19.4142682,-99.1772016,19.4141692,-99.1770018,19.4139375,-99.1765342,19.4137422,-99.17614,19.4135197,-99.175691,19.4132886,-99.1752247,19.4131174,-99.1748791,19.4128844,-99.174409,19.412686,-99.1740086,19.4124924,-99.1736179,19.4123042,-99.1733357,19.4122474,-99.1732012,19.4117878,-99.1723331,19.4117852,-99.1723281,19.4117065,-99.1721513
4830525,Cuautla,1,1,residential,,0.456486641373,0.912973282746,19.415151,-99.175417,19.415151,-99.175417,19.4137422,-99.17614,19.4123388,-99.1769494,19.4115092,-99.1774523
4830531,Cda. Kiff,,1,residential,,0.272662715579,0.545325431158,19.3813042,-99.1457137,19.3813042,-99.1457137,19.3813014,-99.1463337,19.3813268,-99.1469953,19.3813607,-99.147713,19.381372,-99.1483077
4758857,Félix Cuevas,,3,primary,yes,0.0271597293609,0.0814791880828,19.3705554,-99.1648554,19.3705554,-99.1648554,19.3706042,-99.1649683,19.3706868,-99.1650708
4758858,Municipio Libre,,3,primary,yes,0.665398966759,1.99619690028,19.3661741,-99.1269894,19.3661741,-99.1269894,19.3660915,-99.1271473,19.3660387,-99.127355,19.3660619,-99.1276632,19.3660946,-99.1282411,19.3661419,-99.1287278,19.3661929,-99.129252,19.3662422,-99.1297598,19.3662736,-99.1299843,19.3663227,-99.1304719,19.3663759,-99.1310013,19.366424,-99.1314793,19.3664759,-99.1319948,19.366525,-99.132483,19.3666034,-99.1332625
4818252,Callejón del 57,,1,residential,yes,0.191663108123,0.191663108123,19.4367077,-99.1391662,19.4367077,-99.1391662,19.437583,-99.1390108,19.4384155,-99.1388658
4818253,Palma Norte,,1,residential,yes,0.410221863123,0.410221863123,19.4378003,-99.1346,19.4378003,-99.1346,19.4369643,-99.1347006,19.4361011,-99.1348184,19.4352607,-99.1349332,19.4341264,-99.1351093
4842318,Av. Pennsilvania,,3,secondary,,0.188359368347,1.13015621008,19.3842773,-99.1760031,19.3842773,-99.1760031,19.3858363,-99.1767216
4818258,Motolinia,,1,pedestrian,,0.360828718517,0.721657437034,19.4323324,-99.1374934,19.4323324,-99.1374934,19.4336001,-99.1372636,19.4343184,-99.1371424,19.4355543,-99.1369768
4818259,,,1,residential,,0.350309788301,0.700619576602,19.4391624,-99.1434858,19.4391624,-99.1434858,19.4391428,-99.1433663,19.4390891,-99.1430396,19.4389483,-99.1421819,19.4388629,-99.1416621,19.4388113,-99.1413477,19.4387709,-99.1411018,19.4386277,-99.1401979
4794196,Bartolomé R. Salido,,1,residential,yes,0.52823193342,0.52823193342,19.3816528,-99.1476698,19.3816528,-99.1476698,19.3817453,-99.1482189,19.3818586,-99.1487939,19.3820044,-99.1495321,19.3822918,-99.1508088,19.3824225,-99.15158,19.3824873,-99.152052,19.3825804,-99.1526003
4794197,Edzna,,1,residential,,0.909463777218,1.81892755444,19.3825792,-99.1480815,19.3825792,-99.1480815,19.3817453,-99.1482189,19.381372,-99.1483077,19.3809801,-99.148397,19.3801705,-99.1485858,19.3794941,-99.1487468,19.3785661,-99.1489259,19.3781193,-99.1490116,19.3777212,-99.1490879,19.3772946,-99.1491902,19.3745422,-99.1498644
4830521,Yautepec,1,1,residential,yes,0.483920321815,0.483920321815,19.4153465,-99.1758025,19.4153465,-99.1758025,19.4139375,-99.1765342,19.4125735,-99.1773356,19.411493,-99.1779751
4794201,La Quemada,,1,residential,,1.05208953516,2.10417907031,19.3924406,-99.1491909,19.3924406,-99.1491909,19.3916553,-99.149251,19.3897943,-99.1494113,19.3897153,-99.1494181,19.3882306,-99.1495256,19.3872428,-99.1495943,19.3861174,-99.1496951,19.3851215,-99.1498175,19.3842957,-99.1499097,19.3835265,-99.1500127,19.382976,-99.1500814
4794203,Privada Zempoala,,1,residential,,0.0809657851603,0.161931570321,19.3835265,-99.1500127,19.3835265,-99.1500127,19.3833808,-99.1492574
4794205,Uxmal,,1,residential,yes,0.426229317118,0.426229317118,19.3674431,-99.1594006,19.3674431,-99.1594006,19.3673328,-99.1594184,19.3671349,-99.1594503,19.3656879,-99.159755,19.3637035,-99.1603494
4794206,Xochicalco,,1,residential,yes,3.36086047955,3.36086047955,19.4039101,-99.1531094,19.4039101,-99.1531094,19.401979,-99.1532886,19.4017805,-99.1532983,19.4001248,-99.1534157,19.3990072,-99.1534863,19.3983326,-99.1535546,19.3982117,-99.1535463,19.3974773,-99.1535656,19.3973453,-99.1535757,19.3958655,-99.1536986,19.39573,-99.1537113,19.3942341,-99.1538308,19.3940968,-99.1538446,19.3938193,-99.153871,19.3903954,-99.154113,19.3890006,-99.1543331,19.3870485,-99.1546411,19.3867359,-99.1546747,19.3863248,-99.1547193,19.3847127,-99.1548943,19.3822444,-99.1553136,19.3806422,-99.1556243,19.3789276,-99.1560316,19.3770139,-99.156438,19.3757891,-99.156748,19.3738542,-99.1571857
4794207,Tajin,,1,residential,,2.68027029341,5.36054058681,19.3737737,-99.1564361,19.3737737,-99.1564361,19.3756272,-99.1560614,19.3756565,-99.1560573,19.3765605,-99.1558801,19.3788411,-99.1553957,19.380544,-99.1550233,19.3821527,-99.1547177,19.3846438,-99.1542442,19.3868785,-99.153918,19.388025,-99.1537255,19.3884037,-99.1536619,19.3889282,-99.1536247,19.3902982,-99.1534779,19.3936339,-99.1532246,19.3937715,-99.1532242,19.395686,-99.1530365,19.3958149,-99.1530238,19.3977192,-99.1529098
4794210,Peten,,1,residential,yes,0.225717145176,0.225717145176,19.4038825,-99.1517415,19.4038825,-99.1517415,19.4020643,-99.1519328,19.4018527,-99.1519429
4794211,Palenque,,1,residential,yes,1.89132104047,1.89132104047,19.3736287,-99.1550875,19.3736287,-99.1550875,19.3753257,-99.154746,19.3756779,-99.1546613,19.3757293,-99.1546497,19.3786442,-99.1540661,19.3803436,-99.1537892,19.381926,-99.1535075,19.3845264,-99.1529803,19.3865465,-99.1526992,19.3887001,-99.1523409,19.3901201,-99.1521904,19.390478,-99.1521548
4758884,Avenida Tamaulipas,1,3,secondary,yes,1.15180618885,3.45541856654,19.4064354,-99.1797858,19.4064354,-99.1797858,19.4066769,-99.1796858,19.4067659,-99.1791623,19.4069534,-99.1786081,19.4069871,-99.1785388,19.4070785,-99.178355,19.4071172,-99.1782592,19.4075543,-99.1775383,19.4076219,-99.1773848,19.4079397,-99.177068,19.4084921,-99.1765768,19.408625,-99.1764597,19.4088677,-99.1762388,19.4092674,-99.175875,19.4099748,-99.1752453,19.4100569,-99.1751698,19.4110506,-99.174306,19.4115197,-99.1738459,19.4122474,-99.1732012,19.4126593,-99.1728108,19.4133842,-99.1721963,19.4135088,-99.1720907
4794214,Concepción Beistegui,,1,residential,yes,2.79464991248,2.79464991248,19.3911412,-99.1731851,19.3911412,-99.1731851,19.390948,-99.17218,19.3907103,-99.1713144,19.3905208,-99.1704725,19.3904215,-99.1698448,19.3902769,-99.1691694,19.3901403,-99.1686288,19.3900107,-99.168071,19.3897345,-99.1667398,19.3897,-99.1665184,19.3894871,-99.1657168,19.3893187,-99.165006,19.3891552,-99.1642983,19.3889847,-99.1635608,19.3889137,-99.1632103,19.388853,-99.1629108,19.3888044,-99.1626705,19.3886678,-99.1621234,19.3885537,-99.1615479,19.38847,-99.1611261,19.3883682,-99.1606128,19.3882144,-99.1599004,19.3882063,-99.1598682,19.3881809,-99.1597694,19.3880201,-99.1591623,19.38785,-99.1584241,19.38768,-99.1577031,19.3875019,-99.1568878,19.38734,-99.1560638,19.3872023,-99.1553342,19.3870485,-99.1546411,19.3870354,-99.1545202,19.3869827,-99.1543178,19.3868785,-99.153918,19.3867165,-99.1533344,19.3865465,-99.1526992,19.3864397,-99.1520458,19.3864181,-99.1519136,19.3863117,-99.1510277,19.3862137,-99.1503429,19.3861174,-99.1496951,19.3860041,-99.1489227,19.3857976,-99.1472125
4758887,Michoacán,,2,tertiary,yes,0.737250513098,1.4745010262,19.4105088,-99.1670007,19.4105088,-99.1670007,19.4105384,-99.16709,19.4108039,-99.1678656,19.4108454,-99.1680162,19.4110798,-99.1687907,19.4114625,-99.170128,19.4115659,-99.1705139,19.4115496,-99.1712946,19.4115442,-99.1714826,19.4115243,-99.1722391,19.4115243,-99.1722395,19.4115175,-99.1724413,19.4115175,-99.1724451,19.4115197,-99.1738459
4794216,Yacatas,,1,residential,,1.47183871783,2.94367743566,19.3826278,-99.1571882,19.3826278,-99.1571882,19.3850082,-99.1566303,19.38734,-99.1560638,19.3892016,-99.1558086,19.390614,-99.155615,19.3939211,-99.1553663,19.3951894,-99.1552608,19.3953092,-99.1552462,19.3957613,-99.1551954
4758890,Amsterdam,1,1,residential,,0.213653467413,0.427306934826,19.409439,-99.1711375,19.409439,-99.1711375,19.4093807,-99.170665,19.4094616,-99.1700985,19.4095912,-99.1696351,19.409769,-99.1691697
4780909,Av. Iztaccíhuatl,,3,secondary,yes,0.129762700448,0.389288101344,19.4340729,-99.1083189,19.4340729,-99.1083189,19.4340039,-99.108089,19.4338951,-99.1078756,19.4337634,-99.107643,19.4334094,-99.1073389
4847849,Oaxaca,1,2,tertiary,,0.42254818969,1.69019275876,19.4202798,-99.1660212,19.4202798,-99.1660212,19.421156,-99.1652546,19.4212978,-99.1651305,19.4222504,-99.1642181,19.4228233,-99.1636796,19.4231512,-99.1633714
4758908,Ferrocarril Rio Frio,,3,primary,yes,2.0966759656,6.2900278968,19.3837159,-99.0664871,19.3837159,-99.0664871,19.3837849,-99.0666589,19.3838952,-99.0668703,19.3842662,-99.0675807,19.3849728,-99.0689314,19.385235,-99.0694521,19.3854883,-99.0699401,19.3857394,-99.0704187,19.3859927,-99.0708998,19.3862392,-99.0713695,19.3864088,-99.0717221,19.3865872,-99.07207,19.3868251,-99.0725113,19.3870767,-99.0730059,19.3873005,-99.0734311,19.3875417,-99.0738809,19.3877491,-99.07433,19.3879388,-99.0747068,19.3878897,-99.0747994,19.3879304,-99.0748939,19.3884112,-99.0759138,19.3886184,-99.0763147,19.3888597,-99.0767817,19.3891188,-99.077283,19.3894158,-99.0778578,19.389672,-99.0783535,19.3899187,-99.0788308,19.3902039,-99.0793827,19.3905025,-99.0799605,19.3907278,-99.080394,19.3907722,-99.0804823,19.3908944,-99.0807177,19.390991,-99.0809056,19.3910735,-99.0810617,19.3912441,-99.0814128,19.3914425,-99.0817793,19.3915271,-99.081943,19.3916271,-99.0821365,19.3917508,-99.0823759,19.3918076,-99.0824858,19.3919545,-99.0827701,19.3921675,-99.0831822,19.3924089,-99.0836493,19.3925065,-99.0838743,19.3925055,-99.0839727,19.3924984,-99.0840803
4798335,Nigromante,,1,residential,,0.459969658105,0.91993931621,19.3808722,-99.1433696,19.3808722,-99.1433696,19.3809445,-99.1437846,19.3810273,-99.1442696,19.3810571,-99.1444444,19.3811798,-99.1450773,19.3812362,-99.1453657,19.3813042,-99.1457137,19.3813263,-99.145824,19.3814222,-99.146308,19.3814997,-99.1467908,19.3815267,-99.1469593,19.3815706,-99.1472035,19.3816528,-99.1476698
4803460,Campeche,1,1,residential,yes,0.541399626233,0.541399626233,19.4085141,-99.1723354,19.4085141,-99.1723354,19.4085114,-99.172329,19.4083835,-99.172033,19.4083345,-99.1718779,19.4083277,-99.1718563,19.4083256,-99.1717266,19.4083094,-99.1715721,19.4082986,-99.1714172,19.4083105,-99.1712991,19.4085522,-99.1698812,19.4087708,-99.1689971,19.4089327,-99.1683448,19.4090865,-99.1678728,19.4092253,-99.1675149,19.4092737,-99.1673604
4847852,Cuernavaca,1,1,residential,yes,0.990403294445,0.990403294445,19.4171196,-99.1736348,19.4171196,-99.1736348,19.416963,-99.1737227,19.4166591,-99.1738933,19.4160281,-99.174295,19.4154615,-99.174589,19.4148846,-99.1749622,19.4135197,-99.175691,19.4121101,-99.1764601,19.4115328,-99.1768431,19.4114167,-99.1769159,19.4110519,-99.1771183,19.4109613,-99.1771629,19.4093872,-99.1779884,19.4092314,-99.1780714
4809098,Vincente Suárez,2,1,residential,,0.314835427508,0.629670855016,19.4128285,-99.1778978,19.4128285,-99.1778978,19.4127815,-99.1777942,19.4125735,-99.1773356,19.4123388,-99.1769494,19.4121101,-99.1764601,19.4119287,-99.1760352,19.4117526,-99.175672,19.4115836,-99.1753757,19.4115225,-99.1752393
4780781,Francisco I. Madero,,1,pedestrian,,0.722924863953,1.44584972791,19.4341274,-99.1409284,19.4341274,-99.1409284,19.4340435,-99.140334,19.433993,-99.1399647,19.433959,-99.1397166,19.4339158,-99.1394007,19.4336001,-99.1372636,19.4334546,-99.1362421,19.4332974,-99.1352101,19.4331689,-99.1342166,19.433164,-99.1341795,19.4331563,-99.1341212
4847853,Jojutla,1,1,residential,yes,0.341995660304,0.341995660304,19.4119287,-99.1760352,19.4119287,-99.1760352,19.4132886,-99.1752247,19.4146524,-99.1745003
4847854,Amatlán,1,1,residential,yes,0.360160413239,0.360160413239,19.414468,-99.174137,19.414468,-99.174137,19.4131174,-99.1748791,19.4117526,-99.175672,19.4115806,-99.175668
4841372,San Lorenzo,,1,residential,yes,1.86565462772,1.86565462772,19.3756142,-99.1782386,19.3756142,-99.1782386,19.375501,-99.1776918,19.3753624,-99.176942,19.3751633,-99.1761304,19.3749234,-99.1750714,19.3747493,-99.1743286,19.3746524,-99.1736744,19.3744452,-99.1728555,19.374285,-99.1721603,19.3742767,-99.1721207,19.3742566,-99.1720251,19.3740873,-99.1712165,19.3739026,-99.1703704,19.3737401,-99.1696436,19.3735546,-99.1689034,19.3732702,-99.1674629,19.3730932,-99.166702,19.3729497,-99.1659764,19.372792,-99.165201,19.3726224,-99.1644935,19.3724916,-99.1637779,19.3724704,-99.1636685,19.3723788,-99.1630596,19.3722227,-99.1618037,19.3721804,-99.1615686,19.3720895,-99.1608856
4841373,Tejocotes,,1,residential,yes,0.243701025123,0.243701025123,19.3734204,-99.1776342,19.3734204,-99.1776342,19.3713013,-99.178263
4809119,Salamanca,5,3,primary,yes,0.685186020583,2.05555806175,19.4221238,-99.1702071,19.4221238,-99.1702071,19.4219948,-99.1701812,19.4218738,-99.1701581,19.4218345,-99.1701645,19.4218099,-99.1701685,19.4214361,-99.1700802,19.4210074,-99.1700073,19.4201557,-99.1698216,19.4193466,-99.1696104,19.4191342,-99.1695417,19.4178005,-99.1692046,19.4170396,-99.1690698,19.4170367,-99.1690693,19.416928,-99.1690234,19.4169254,-99.1690217,19.4168084,-99.1689469,19.4166763,-99.1688437,19.4166214,-99.1687603,19.4165503,-99.1686608,19.4165111,-99.1685238,19.4165192,-99.1683023
4794273,Enrique Rebsámen,,1,residential,,0.265583037111,0.531166074223,19.3835129,-99.1610777,19.3835129,-99.1610777,19.384525,-99.1608288,19.3847922,-99.1607773,19.3858553,-99.1605321
4809123,Alvaro Obregón,3,3,secondary,yes,1.42256611035,4.26769833105,19.4194983,-99.1541942,19.4194983,-99.1541942,19.4193499,-99.1549323,19.4191529,-99.1559108,19.4188777,-99.1573528,19.4186199,-99.1585575,19.4183771,-99.1597591,19.4183585,-99.1598491,19.4181041,-99.1611261,19.417859,-99.1625572,19.4175294,-99.1641474,19.417442,-99.1646724,19.417433,-99.1647264,19.4174043,-99.1648668,19.4171995,-99.1658921,19.4169032,-99.1673928,19.4169092,-99.1674572
4809124,Álvaro Obregón,3,3,primary,yes,0.229925813942,0.689777441826,19.4164882,-99.1694221,19.4164882,-99.1694221,19.4164895,-99.1694157,19.4166214,-99.1687603,19.416662,-99.1685624,19.4167984,-99.1678733,19.4168084,-99.1676449,19.4167634,-99.1674062,19.4167184,-99.1672806
4809125,Medellín,4,3,primary,yes,1.44334669748,4.33004009244,19.4152852,-99.1654739,19.4152852,-99.1654739,19.415215,-99.1654359,19.4151252,-99.1654039,19.4147574,-99.1653033,19.4138809,-99.1650575,19.4130714,-99.1648687,19.412345,-99.1647085,19.4119947,-99.1646112,19.4115819,-99.1645168,19.4109608,-99.164348,19.4099517,-99.1641076,19.4094528,-99.1640018,19.4089289,-99.1638673,19.4078805,-99.1636207,19.4074176,-99.1635118,19.4069136,-99.1633932,19.4061198,-99.1632064,19.4058148,-99.1631222,19.4049032,-99.1628774,19.4038706,-99.162623,19.4030536,-99.1624104,19.4026042,-99.1622983
4809129,Amores,,3,primary,yes,1.16237638107,3.48712914322,19.4012871,-99.1621007,19.4012871,-99.1621007,19.4011015,-99.1621472,19.3990168,-99.162669,19.3983636,-99.1628325,19.3979325,-99.1629404,19.3978697,-99.1629561,19.3973527,-99.1630856,19.3967933,-99.1632256,19.3966699,-99.1632565,19.395437,-99.1635651,19.3943569,-99.1638355,19.3932149,-99.1641213,19.3927383,-99.1642406,19.3922568,-99.1643611,19.3915697,-99.1645331,19.3910708,-99.164658
4841388,Recreo,,1,residential,yes,0.244661349832,0.244661349832,19.371149,-99.1776304,19.371149,-99.1776304,19.3732935,-99.1770668
4758963,Avenida Chapultepec,,3,primary,yes,1.05757733282,3.17273199845,19.4234244,-99.1645668,19.4234244,-99.1645668,19.4233036,-99.1649469,19.4231593,-99.1656048,19.4231515,-99.1656405,19.4231292,-99.165733,19.4231254,-99.1657486,19.4230809,-99.1659554,19.422887,-99.1669228,19.4228375,-99.1671905,19.4225027,-99.1686504,19.4224452,-99.1688045,19.422399,-99.1689945,19.4221238,-99.1702071,19.4217397,-99.1718794,19.4214952,-99.1729713,19.421213,-99.1741447,19.421193,-99.1743522
4847860,Teotihuacán,,1,residential,,0.165453002144,0.330906004288,19.4115974,-99.1667446,19.4115974,-99.1667446,19.4117657,-99.1674301,19.4118054,-99.1675919,19.4119996,-99.1682614
4841404,Tlacoquemécatl,,1,residential,yes,1.30008763336,1.30008763336,19.376639,-99.1650421,19.376639,-99.1650421,19.3768013,-99.1657774,19.3769795,-99.166525,19.3771465,-99.1672541,19.3773134,-99.1680044,19.377477,-99.1687335,19.3776206,-99.1694767,19.3777944,-99.1703257,19.377926,-99.1712488,19.3779313,-99.1712738,19.3779362,-99.1712972,19.377992,-99.1715605,19.3780766,-99.1719599,19.3780869,-99.1720135,19.3780978,-99.1720702,19.3781314,-99.1722444,19.3781937,-99.172568,19.3782282,-99.1727469,19.3783551,-99.1734902,19.3783885,-99.1737344,19.3784519,-99.174198,19.3785521,-99.1752279,19.3786225,-99.1760208,19.3787475,-99.1769031,19.3787724,-99.1771958
4841412,Manzanas,,1,residential,yes,0.590152437993,0.590152437993,19.3787475,-99.1769031,19.3787475,-99.1769031,19.3777657,-99.1771307,19.3767897,-99.177334,19.3765442,-99.1774031,19.375501,-99.1776918,19.3750139,-99.1778198,19.3743217,-99.1779906,19.3736237,-99.1781837,19.3735623,-99.178202
4758981,Bonampak,,1,residential,,0.485154047241,0.970308094482,19.3801437,-99.1525901,19.3801437,-99.1525901,19.3809084,-99.1524211,19.3817007,-99.152225,19.3824873,-99.152052,19.3832998,-99.1518752,19.3844293,-99.1516242
4758991,Avenida Universidad,,2,tertiary,yes,0.803245372253,1.60649074451,19.3980486,-99.1459557,19.3980486,-99.1459557,19.3973271,-99.146546,19.396366,-99.1474303,19.395547,-99.1481932,19.3954801,-99.1482768,19.3953591,-99.1483874,19.3946326,-99.1490178,19.3939232,-99.1497417,19.393136,-99.150469,19.3925768,-99.1509709
4847864,Cacahuamilpa,1,1,residential,yes,0.182942346024,0.182942346024,19.4150681,-99.1678824,19.4150681,-99.1678824,19.4156748,-99.1676863,19.4157839,-99.1676524,19.4166583,-99.1674093
4809199,Colonia del Valle,,3,primary,yes,0.231472631069,0.694417893206,19.3910708,-99.164658,19.3910708,-99.164658,19.390954,-99.1647485,19.3907602,-99.1649665,19.390579,-99.165314,19.389903,-99.1664673
4809202,Sta. Rosalia,,1,residential,yes,0.322991835742,0.322991835742,19.3832928,-99.1756607,19.3832928,-99.1756607,19.3833093,-99.1755862,19.3832567,-99.1754902,19.3832256,-99.1754676,19.3824261,-99.1752385,19.3817657,-99.1750346,19.3811408,-99.1748759,19.3806888,-99.1751925
4809203,Parroquia,,2,tertiary,yes,1.44693953295,2.8938790659,19.3675645,-99.1620543,19.3675645,-99.1620543,19.367607,-99.1622856,19.367764,-99.1630269,19.3677778,-99.1630946,19.3678523,-99.1634895,19.3681789,-99.1648707,19.3682923,-99.1653673,19.3684645,-99.1661993,19.3685,-99.1663562,19.3686546,-99.1670785,19.3687978,-99.1677836,19.3689842,-99.1685562,19.3691384,-99.1692974,19.3693108,-99.1700055,19.3694631,-99.1707279,19.3696108,-99.1714374,19.3698252,-99.172355,19.3700212,-99.173254,19.3701853,-99.1739703,19.3703454,-99.1746758,19.3705781,-99.1754522
4809207,Pilares,,1,residential,yes,0.0375997100382,0.0375997100382,19.3803216,-99.1763392,19.3803216,-99.1763392,19.3805374,-99.1766156
4809208,Miguel Laurent,,1,residential,yes,3.00632789976,3.00632789976,19.3729556,-99.149401,19.3729556,-99.149401,19.3730523,-99.1501991,19.3731006,-99.1505732,19.3731576,-99.1510145,19.3732108,-99.1514534,19.3732704,-99.1519453,19.37332,-99.1524287,19.3733593,-99.1528123,19.3733731,-99.1529331,19.3734622,-99.1538172,19.3735627,-99.1542888,19.3735586,-99.1544355,19.3736287,-99.1550875,19.3736987,-99.1557385,19.3737737,-99.1564361,19.3737931,-99.1566171,19.3738542,-99.1571857,19.373856,-99.1572033,19.3739031,-99.1576402,19.3739242,-99.1578276,19.3739469,-99.1579956,19.3740443,-99.158757,19.3741089,-99.1595477,19.374195,-99.1603618,19.374323,-99.1610434,19.3745105,-99.161755,19.3746236,-99.162273,19.3746553,-99.1624145,19.3747524,-99.1628837,19.3747776,-99.1630067,19.3748039,-99.1631328,19.3748248,-99.1632336,19.3749295,-99.1639237,19.375075,-99.1646777,19.3752305,-99.1654167,19.3753925,-99.1661046,19.3756093,-99.1669169,19.3759212,-99.1683406,19.3762614,-99.1698349,19.3764149,-99.17063,19.3766295,-99.1715946,19.3766363,-99.1716255,19.3767711,-99.1722608,19.3769674,-99.1731006,19.3771037,-99.1738068,19.3772466,-99.1744988,19.377467,-99.175504,19.3776172,-99.1763038,19.3777657,-99.1771307,19.3778405,-99.1775047
4809211,Búfalo,,1,residential,yes,0.267711604096,0.267711604096,19.3662276,-99.1781107,19.3662276,-99.1781107,19.3674046,-99.177813,19.3685664,-99.177519,19.3685792,-99.1775158
24685569,Circular de Morelia,1,1,residential,,0.157150523137,0.314301046274,19.4246268,-99.1562916,19.4246268,-99.1562916,19.4246819,-99.1560647,19.4247037,-99.1559383,19.4246794,-99.155801,19.4246066,-99.155698,19.4244852,-99.1556465,19.4243152,-99.1556808,19.4242218,-99.1557739,19.4241,-99.1559568,19.4240388,-99.1561315
6026248,Pachuca,,3,secondary_link,no,0.0180043408858,0.108026045315,19.4104684,-99.1803825,19.4104684,-99.1803825,19.410607,-99.1802928
6029838,Río Volga,,1,residential,,0.158411717289,0.316823434578,19.426791,-99.1708262,19.426791,-99.1708262,19.4274284,-99.1694757
24685584,Cerrada Colima,,1,residential,,0.0812725185479,0.162545037096,19.4212912,-99.1571498,19.4212912,-99.1571498,19.4205759,-99.1569754
24680468,Colima,2,1,residential,yes,2.14591352449,2.14591352449,19.4166591,-99.1738933,19.4166591,-99.1738933,19.4167954,-99.173463,19.4168525,-99.1732829,19.417161,-99.1720308,19.4173629,-99.1712636,19.4174029,-99.1711113,19.4175104,-99.1705611,19.4178005,-99.1692046,19.4180676,-99.1681613,19.4180695,-99.1681539,19.4181211,-99.1679475,19.418125,-99.1679324,19.4181609,-99.1677954,19.4184765,-99.1661746,19.4188813,-99.1644877,19.4189241,-99.164281,19.4189305,-99.1642531,19.4192356,-99.162912,19.4195677,-99.1614883,19.4198477,-99.1602099,19.4198669,-99.1601172,19.4201329,-99.1589427,19.4204064,-99.1577281,19.4205759,-99.1569754,19.4207327,-99.1562786,19.4209585,-99.1553104,19.4213039,-99.1540629
6027800,Río Tigris,,1,residential,yes,0.606612913449,0.606612913449,19.4344801,-99.1691168,19.4344801,-99.1691168,19.4343436,-99.169103,19.4340061,-99.1689461,19.43312,-99.16846,19.4319504,-99.1678424,19.4308114,-99.1672199,19.4295677,-99.1665802
8153116,Mazatlán,2,2,tertiary,yes,1.12468137971,2.24936275942,19.4181759,-99.174959,19.4181759,-99.174959,19.4180764,-99.1750601,19.4179708,-99.1751542,19.4167806,-99.1757902,19.4163901,-99.1760095,19.416035,-99.176209,19.4156881,-99.1764611,19.4142682,-99.1772016,19.412883,-99.178011,19.4118195,-99.1786119,19.4117197,-99.1786688,19.4114739,-99.1787902,19.4113432,-99.1788758,19.4102233,-99.1795221,19.4100525,-99.1796216,19.4092444,-99.1800328
6029349,Calzada Villalongín,,1,residential,,0.45872254525,0.9174450905,19.4348251,-99.1703627,19.4348251,-99.1703627,19.434602,-99.1696194,19.4344801,-99.1691168,19.4343,-99.1685194,19.4341513,-99.1680514,19.4338361,-99.1669367,19.4336201,-99.1661842
6027317,Río Ganges,,1,residential,yes,0.290657871897,0.290657871897,19.4294763,-99.1730116,19.4294763,-99.1730116,19.4283262,-99.1724535,19.427119,-99.1717943
8163899,Eugenia,,1,residential,yes,0.171198049947,0.171198049947,19.3893828,-99.1761307,19.3893828,-99.1761307,19.3890077,-99.1745496
24680512,Tabasco,1,1,residential,yes,0.986404898785,0.986404898785,19.4201426,-99.155138,19.4201426,-99.155138,19.4199437,-99.1560911,19.4196424,-99.1575498,19.4193913,-99.1587474,19.4191466,-99.159945,19.4191144,-99.1600415,19.4188505,-99.1613164,19.4185303,-99.1627232,19.4181794,-99.1642982
24685640,Manuel Ávila Camacho,3,4,trunk,yes,0.153022075989,0.612088303956,19.4279172,-99.2031251,19.4279172,-99.2031251,19.4280486,-99.2033589,19.4282124,-99.2035706,19.4287218,-99.2040619,19.4288442,-99.2041936
6028471,Río Niagara,,1,residential,yes,0.43920661959,0.43920661959,19.4312745,-99.1723725,19.4312745,-99.1723725,19.430095,-99.1717569,19.428968,-99.171159,19.4277176,-99.1705196
24685644,Flora,1,1,residential,yes,0.153141481055,0.153141481055,19.4234448,-99.1577199,19.4234448,-99.1577199,19.424738,-99.1580314,19.4247932,-99.1580459
24685645,Jalapa,2,1,residential,yes,1.68295677125,1.68295677125,19.4075458,-99.160008,19.4075458,-99.160008,19.4086293,-99.1599166,19.4097199,-99.1598204,19.4102331,-99.1597761,19.4107697,-99.1597298,19.4111774,-99.1597478,19.4119045,-99.1596258,19.412153,-99.1596395,19.4129064,-99.1598376,19.4140111,-99.160119,19.4148653,-99.160318,19.4156348,-99.1605405,19.4165559,-99.1607591,19.417196,-99.1609308,19.4178775,-99.1610832,19.4181041,-99.1611261,19.4188505,-99.1613164,19.4195677,-99.1614883,19.4207625,-99.161763,19.4208033,-99.1617724,19.4224407,-99.1622134
6026321,Zamora,1,1,residential,yes,1.03873117986,1.03873117986,19.4196592,-99.1761611,19.4196592,-99.1761611,19.4196051,-99.1762529,19.4188009,-99.1767189,19.4176276,-99.1773898,19.4164789,-99.1780468,19.4150546,-99.1787885,19.4136997,-99.1795771,19.4126112,-99.1802022,19.4125204,-99.1802573,19.4114247,-99.1808708
24690020,San Luis Potosi,2,2,tertiary,yes,0.430662956781,0.861325913563,19.4127801,-99.1662017,19.4127801,-99.1662017,19.4127824,-99.1661753,19.4130714,-99.1648687,19.4134221,-99.1630997,19.4136083,-99.1621957
24690022,Coahuila,2,1,residential,yes,1.31379412713,1.31379412713,19.4128389,-99.1547435,19.4128389,-99.1547435,19.4126217,-99.1558261,19.4124038,-99.157018,19.4122056,-99.1581862,19.4121863,-99.1582691,19.4119599,-99.1593213,19.4119045,-99.1596258,19.4115707,-99.1610392,19.4112927,-99.1625112,19.4109608,-99.164348,19.4106742,-99.1659443,19.4104961,-99.1669114,19.4105088,-99.1670007
6029414,Río Eufrates,,1,residential,yes,0.14153114719,0.14153114719,19.4338361,-99.1669367,19.4338361,-99.1669367,19.4326922,-99.1663347
24689938,Medellin,2,1,residential,yes,0.271419019384,0.271419019384,19.4195824,-99.16649,19.4195824,-99.16649,19.4184765,-99.1661746,19.4178528,-99.1660693,19.4171995,-99.1658921
5849710,Manuel Gonzalez,,3,primary,yes,0.0969322383018,0.290796714905,19.4581526,-99.1537216,19.4581526,-99.1537216,19.4582406,-99.1541934,19.4583113,-99.1546294
6029938,,,1,unclassified,,0.224807370266,0.449614740532,19.4324037,-99.1616106,19.4324037,-99.1616106,19.4318317,-99.1617595,19.4316409,-99.1607761,19.4321183,-99.1606626
8837240,,,4,trunk,yes,0.146572861424,0.586291445694,19.4597777,-99.1896683,19.4597777,-99.1896683,19.459962,-99.1896434,19.460087,-99.1896127,19.4601988,-99.1895318,19.4603287,-99.1893287,19.4603582,-99.1892035,19.4603501,-99.1890755,19.4603104,-99.1889906,19.4602655,-99.1889132,19.4602093,-99.1888458,19.4601031,-99.1887546
6028925,Río Po,,1,residential,yes,0.617858711183,0.617858711183,19.4339685,-99.1700936,19.4339685,-99.1700936,19.4339038,-99.170188,19.4337986,-99.170231,19.4335962,-99.1702395,19.4334188,-99.1701973,19.4325352,-99.1697317,19.4313663,-99.1691094,19.4302393,-99.1685194,19.4289723,-99.1678481
8119429,Vallejo,,3,primary,,0.942168390881,5.65301034528,19.4734337,-99.1459827,19.4734337,-99.1459827,19.4729854,-99.1457952,19.4713715,-99.1452005,19.4704228,-99.1448379,19.4678587,-99.1438826,19.4673828,-99.1437311,19.467285,-99.1437028,19.4671941,-99.1436764,19.4665591,-99.1434196,19.4656893,-99.1430791,19.4655687,-99.1430402,19.4654049,-99.1430391
6029505,Río Rhin,,1,residential,yes,0.52937566613,0.52937566613,19.4336201,-99.1661842,19.4336201,-99.1661842,19.4329064,-99.1658136,19.4317666,-99.1652218,19.4305116,-99.1645702,19.4299278,-99.1642671,19.4293603,-99.1639725,19.4293301,-99.1639568
5859977,Calzada Camarones,,3,secondary,yes,1.5527454146,4.65823624381,19.4567724,-99.1682497,19.4567724,-99.1682497,19.4570502,-99.1681831,19.4570748,-99.1681655,19.4571262,-99.1681806,19.4571476,-99.1681881,19.4571788,-99.1681843,19.4572546,-99.1682256,19.4577222,-99.1684967,19.4578407,-99.1685634,19.4580141,-99.1686427,19.4587619,-99.1690765,19.4589067,-99.1691606,19.4590969,-99.1692709,19.4591332,-99.1692913,19.4596128,-99.169584,19.4605383,-99.1701487,19.4608388,-99.1703321,19.460997,-99.1704273,19.4617369,-99.1708723,19.4620877,-99.1710834,19.4623969,-99.1712671,19.4630652,-99.1716641,19.4632166,-99.171754,19.4632928,-99.1717993,19.4645841,-99.1725664,19.4654021,-99.1730524,19.4654832,-99.173136,19.4656374,-99.1732998,19.4671533,-99.1748373,19.4678176,-99.1755528,19.4681506,-99.1758852,19.4682767,-99.1760189,19.4683847,-99.1761283
24680588,Morelia,4,1,residential,yes,0.700541708544,0.700541708544,19.4252836,-99.1564825,19.4252836,-99.1564825,19.4251456,-99.1564383,19.4250942,-99.1564238,19.4246268,-99.1562916,19.4240388,-99.1561315,19.4238155,-99.1560754,19.4230478,-99.1558783,19.4221294,-99.1556227,19.4209585,-99.1553104,19.4201426,-99.155138,19.4193499,-99.1549323,19.4191421,-99.1548789
24689814,,1,1,residential,,0.0627304758463,0.125460951693,19.4231355,-99.1616701,19.4231355,-99.1616701,19.422581,-99.1615469
24689815,Avenida Chapultepec,,3,primary,yes,1.14104640825,3.42313922475,19.4272102,-99.1489262,19.4272102,-99.1489262,19.4272037,-99.1489511,19.4271941,-99.1489878,19.4266843,-99.1509463,19.4261531,-99.1529602,19.4259665,-99.1536724,19.4258509,-99.1541628,19.4255456,-99.1553632,19.425534,-99.1554127,19.4252836,-99.1564825,19.4250776,-99.1573881,19.4247614,-99.1588369,19.4247481,-99.1588977,19.4246355,-99.1594447
24689817,Avenida Chapultepec,,3,primary,yes,0.185261729221,0.555785187663,19.4246355,-99.1594447,19.4246355,-99.1594447,19.4245752,-99.159599,19.4242529,-99.1611596
24690369,Cuyutlán,1,1,residential,,0.116937024931,0.233874049863,19.4095001,-99.166279,19.4095001,-99.166279,19.4084713,-99.1660263
6026910,Río Nazas,,1,residential,yes,0.874586113868,0.874586113868,19.429401,-99.1732705,19.429401,-99.1732705,19.4294763,-99.1730116,19.429741,-99.1724444,19.430095,-99.1717569,19.4304206,-99.1710993,19.4307242,-99.1704613,19.4310429,-99.1697964,19.4313663,-99.1691094,19.4316698,-99.1684114,19.4319504,-99.1678424,19.4322904,-99.1671586,19.4326922,-99.1663347,19.4329064,-99.1658136
8838817,,,3,primary,yes,0.112593940399,0.337781821196,19.460124,-99.189914,19.460124,-99.189914,19.4598532,-99.1898979,19.4596087,-99.1898986,19.4594483,-99.1899541,19.4592919,-99.1900665,19.459195,-99.1901778
6026406,Agustín Melgar,2,1,residential,,0.312236306473,0.624472612946,19.419202,-99.177538,19.419202,-99.177538,19.4188009,-99.1767189,19.4183513,-99.1759001,19.4181496,-99.1755321,19.4179708,-99.1751542,19.4178303,-99.1749431
24689832,Oro,1,1,residential,,0.181144983416,0.362289966832,19.4197287,-99.1659632,19.4197287,-99.1659632,19.4188813,-99.1644877
6027954,Río Marne,,1,residential,,0.166222820832,0.332445641663,19.4318317,-99.1617595,19.4318317,-99.1617595,19.4304816,-99.161072,19.4304838,-99.1610722
6026423,Tula,1,1,residential,,0.172205469944,0.344410939888,19.4135058,-99.1792032,19.4135058,-99.1792032,19.4148628,-99.1784015
6025403,Cerrada Ameyalco,,1,residential,yes,0.238858480597,0.238858480597,19.3884129,-99.1718813,19.3884129,-99.1718813,19.3881389,-99.1724149,19.3879005,-99.1731675,19.3876418,-99.1739976
24690037,Tapachula,1,1,residential,yes,0.524512361687,0.524512361687,19.4122155,-99.1611894,19.4122155,-99.1611894,19.41193,-99.1626846,19.4115819,-99.1645168,19.4112605,-99.1660807
5231809,Pengos,,1,residential,,0.294682185796,0.589364371593,19.455603,-99.0992992,19.455603,-99.0992992,19.4553213,-99.0984169,19.4547755,-99.09691,19.4547177,-99.0966547
24684739,Álvaro Obregón,2,3,primary,yes,0.241804864526,0.725414593578,19.4162307,-99.1696609,19.4162307,-99.1696609,19.4162336,-99.1696475,19.4163835,-99.1689608,19.4165192,-99.1683023,19.4166384,-99.1677682,19.4166666,-99.1675736,19.4166583,-99.1674093
24690373,Champoton,1,1,residential,,0.117671230166,0.235342460332,19.4094248,-99.1666662,19.4094248,-99.1666662,19.4083843,-99.1664369
24690375,Tlacotalpan,1,1,residential,yes,0.907192223296,0.907192223296,19.4095548,-99.1672289,19.4095548,-99.1672289,19.4093263,-99.1671723,19.4082835,-99.1669128,19.4072807,-99.1666803,19.4063189,-99.1664572,19.4060085,-99.1663832,19.405239,-99.1661974,19.4042635,-99.1659559,19.4032573,-99.165711,19.401568,-99.1652938
24684745,Frontera,2,1,residential,yes,1.24006579722,1.24006579722,19.4250776,-99.1573881,19.4250776,-99.1573881,19.4249509,-99.1573377,19.4249018,-99.1573267,19.4236034,-99.1570003,19.4219161,-99.1565784,19.4207327,-99.1562786,19.4199437,-99.1560911,19.4191529,-99.1559108,19.4189263,-99.1558422,19.4182309,-99.1556599,19.4175775,-99.1554941,19.4166482,-99.1552523,19.4158649,-99.1550604,19.4150096,-99.1548446,19.4141894,-99.1546197
24684750,Merida,2,1,residential,yes,1.45716837843,1.45716837843,19.4117943,-99.1555906,19.4117943,-99.1555906,19.4126217,-99.1558261,19.4136509,-99.1560959,19.41471,-99.1563357,19.4155593,-99.1565755,19.4163786,-99.1567653,19.4172979,-99.1569752,19.4179273,-99.157135,19.4186591,-99.1572927,19.4188777,-99.1573528,19.4196424,-99.1575498,19.4204064,-99.1577281,19.4216242,-99.1580604,19.4216458,-99.1580688,19.4232683,-99.1584765,19.4245953,-99.1588139
24690382,Taxco,1,1,residential,,0.227273164722,0.454546329444,19.4084954,-99.1659128,19.4084954,-99.1659128,19.4074689,-99.1656947,19.4064939,-99.1654337
24684765,Yucatán,2,2,tertiary,yes,0.313870782032,0.627741564063,19.4136083,-99.1621957,19.4136083,-99.1621957,19.4131443,-99.1614016,19.4127455,-99.1607436,19.4125268,-99.1603785,19.4121939,-99.1598041,19.412153,-99.1596395
24689887,Uruapan,1,1,residential,,0.127998931889,0.255997863779,19.420647,-99.164984,19.420647,-99.164984,19.4208839,-99.1637911
6025445,Ameyalco,,1,residential,yes,0.209177499981,0.209177499981,19.3881279,-99.1741828,19.3881279,-99.1741828,19.3876418,-99.1739976,19.3865788,-99.17359,19.386359,-99.1734844
8152808,Casa del Obrero Mundial,,3,secondary,yes,0.845931645977,2.53779493793,19.4029921,-99.1371322,19.4029921,-99.1371322,19.4028886,-99.1383012,19.402802,-99.1402011,19.4025459,-99.1428542,19.4023722,-99.1450119,19.4023884,-99.1451562
6025966,Antonio Sola,2,1,residential,,0.456485398077,0.912970796155,19.4141339,-99.1720806,19.4141339,-99.1720806,19.414135,-99.1720828,19.4147815,-99.1733166,19.4154615,-99.174589,19.4161321,-99.1758825
24690045,Cerrada Orizaba,1,1,residential,,0.0613715999363,0.122743199873,19.4127769,-99.1583699,19.4127769,-99.1583699,19.4128955,-99.1577991
6027512,Río Nilo,,1,residential,yes,0.574459824738,0.574459824738,19.4261006,-99.1704885,19.4261006,-99.1704885,19.4260672,-99.1704807,19.4260974,-99.1704951,19.426791,-99.1708262,19.4274102,-99.1711741,19.4286194,-99.1718779,19.429741,-99.1724444,19.4306668,-99.1729298
6029561,Rio Amazonas,,1,residential,yes,0.457385774469,0.457385774469,19.429652,-99.1628447,19.429652,-99.1628447,19.4296521,-99.162854,19.4310104,-99.1635084,19.4322445,-99.1641971,19.4333436,-99.1647866
24684794,Chiapas,1,1,residential,yes,1.28041148965,1.28041148965,19.4115431,-99.1665738,19.4115431,-99.1665738,19.4116387,-99.1661693,19.4119947,-99.1646112,19.4123359,-99.1628117,19.412634,-99.1612934,19.4127455,-99.1607436,19.4127705,-99.1605871,19.4129064,-99.1598376,19.4131385,-99.1585643,19.4131579,-99.1584668,19.4133959,-99.1572708,19.4136509,-99.1560959,19.4139155,-99.154644
24690047,Leon de los Aldama,1,1,residential,,0.278174479939,0.556348959879,19.4106709,-99.1623417,19.4106709,-99.1623417,19.4109744,-99.1608754,19.4111774,-99.1597478
24689962,Zacatecas,2,1,residential,yes,0.129053480415,0.129053480415,19.414715,-99.1655436,19.414715,-99.1655436,19.4147574,-99.1653033,19.41491,-99.1643322
24689926,Guanajuato,2,1,residential,yes,1.16420935752,1.16420935752,19.4178121,-99.1543397,19.4178121,-99.1543397,19.4175775,-99.1554941,19.417479,-99.156009,19.4172979,-99.1569752,19.4170646,-99.1581761,19.4168864,-99.1590951,19.416837,-99.1593948,19.4168218,-99.1594869,19.4167973,-99.1596359,19.4165559,-99.1607591,19.4162749,-99.1621642,19.4159666,-99.1637284,19.4157274,-99.1652032
4847879,Reynosa,1,1,residential,yes,0.252389578177,0.252389578177,19.4082667,-99.1761212,19.4082667,-99.1761212,19.4074097,-99.1766506,19.407307,-99.1767063,19.4062956,-99.1773286
4847882,Camargo,1,1,residential,,0.158976920208,0.317953840415,19.4071526,-99.1757607,19.4071526,-99.1757607,19.4070442,-99.1758223,19.405887,-99.1764761
4847884,,,1,residential,,0.0795292826255,0.159058565251,19.4059275,-99.1780852,19.4059275,-99.1780852,19.4060059,-99.1779481,19.4065407,-99.177751
4847885,Gómez Palacio,1,1,residential,yes,0.310707251697,0.310707251697,19.406434,-99.1787331,19.406434,-99.1787331,19.4068966,-99.178574,19.4069871,-99.1785388,19.407131,-99.1785142,19.4071919,-99.178488,19.4078621,-99.1782454,19.4090916,-99.1777889
4847886,Irapuato,1,1,residential,yes,0.134633485511,0.134633485511,19.4077253,-99.1777371,19.4077253,-99.1777371,19.4088981,-99.1773976
4847888,Tacámbaro,1,1,residential,yes,0.153886071869,0.153886071869,19.4080087,-99.1787413,19.4080087,-99.1787413,19.4093154,-99.1782413
4847889,Sombrerete,2,1,residential,yes,0.332997346541,0.332997346541,19.4095156,-99.178646,19.4095156,-99.178646,19.408122,-99.1791276,19.4078707,-99.1791928,19.4068173,-99.179642,19.4066769,-99.1796858
24684818,Antonio M. Anza,3,2,tertiary,yes,0.477634476422,0.955268952845,19.4119599,-99.1593213,19.4119599,-99.1593213,19.4117084,-99.1588051,19.4117111,-99.1581443,19.4117136,-99.1580492,19.4117651,-99.1568364,19.4117943,-99.1555906,19.4117845,-99.1548395
24689940,,,1,residential,yes,0.0871418968323,0.0871418968323,19.4171995,-99.1658921,19.4171995,-99.1658921,19.4171633,-99.1659241,19.4171224,-99.1659601,19.4170829,-99.1659769,19.4170368,-99.16598,19.4170039,-99.1659639,19.4169806,-99.1659394,19.4169604,-99.1658904,19.4169391,-99.1658301,19.4169816,-99.1657702,19.4170088,-99.1657301,19.4170346,-99.165714,19.417065,-99.1657076,19.4170993,-99.1657146,19.4171368,-99.1657388,19.4171694,-99.1657958,19.4171995,-99.1658921
24689941,Medellin,2,1,residential,yes,0.142370970388,0.142370970388,19.4158559,-99.16538,19.4158559,-99.16538,19.4158357,-99.1654454,19.4158537,-99.1655489,19.4159359,-99.1655953,19.4160254,-99.1656218,19.4169391,-99.1658301
4856186,Calzada General Mariano Escobedo,,3,primary,yes,3.75624966158,11.2687489848,19.4565004,-99.1805103,19.4565004,-99.1805103,19.4563925,-99.180589,19.4552922,-99.1812394,19.4543363,-99.1814181,19.4533693,-99.1815773,19.4523999,-99.1817286,19.4511702,-99.1819531,19.4493442,-99.182228,19.4484387,-99.1823727,19.4481885,-99.1824418,19.4474096,-99.1825469,19.4459212,-99.1827257,19.4455026,-99.1828154,19.4435688,-99.1831102,19.4432984,-99.1831598,19.4416357,-99.1833549,19.4397993,-99.1836287,19.43968,-99.1836492,19.4395312,-99.1836714,19.4393351,-99.183708,19.439159,-99.1836911,19.4386672,-99.1836462,19.438091,-99.1836095,19.4377037,-99.18355,19.4372723,-99.1834871,19.4372309,-99.1834798,19.4369568,-99.1834316,19.4353171,-99.1827593,19.4352024,-99.182717,19.4347359,-99.1825328,19.4341357,-99.1822568,19.433421,-99.1819699,19.4330174,-99.1818258,19.4328521,-99.1817832,19.431311,-99.181073,19.4312354,-99.181027,19.4305546,-99.1807535,19.4302009,-99.1806008,19.4295331,-99.1803289,19.4285976,-99.1800441,19.4284866,-99.179987,19.4281974,-99.1798919,19.4249006,-99.1785263,19.4247796,-99.1784799,19.4243236,-99.1783061,19.4241366,-99.1782327,19.4238845,-99.1781443
4856094,Matías Romero,,1,residential,,1.06476252698,2.12952505396,19.3792568,-99.1584856,19.3792568,-99.1584856,19.3792106,-99.1581644,19.3791347,-99.1575587,19.3790167,-99.1567869,19.3789276,-99.1560316,19.3788411,-99.1553957,19.378744,-99.1547692,19.3786442,-99.1540661,19.3785683,-99.1534972,19.3785482,-99.153347,19.3783968,-99.152559,19.3783072,-99.152098,19.3782191,-99.1516757,19.3780969,-99.1510182,19.3779748,-99.1503918,19.3778464,-99.1497289,19.3777212,-99.1490879,19.3776011,-99.1485063
6026015,Cerrada Pachuca,1,1,residential,,0.0945419676966,0.189083935393,19.4167809,-99.1768099,19.4167809,-99.1768099,19.4163901,-99.1760095
4856096,Chichen Itzá,,1,residential,yes,0.582610423381,0.582610423381,19.3753742,-99.1542654,19.3753742,-99.1542654,19.3756779,-99.1546613,19.376107,-99.1552621,19.3765605,-99.1558801,19.3770139,-99.156438,19.3775078,-99.1571246,19.3780079,-99.1578009,19.3784147,-99.1583556,19.3786333,-99.1586181
4847914,Francisco Márquez,1,1,residential,yes,0.297973843047,0.297973843047,19.4129238,-99.1810379,19.4129238,-99.1810379,19.4125204,-99.1802573,19.4121137,-99.1794484,19.4117197,-99.1786688,19.4116608,-99.1785329
6029622,Río Neva,,1,residential,yes,0.324713804322,0.324713804322,19.4301583,-99.1617544,19.4301583,-99.1617544,19.4301617,-99.1617531,19.4315222,-99.1624803,19.4327963,-99.1631028
24690057,Tlaxcala,2,1,residential,yes,0.878027893496,0.878027893496,19.4069933,-99.1680847,19.4069933,-99.1680847,19.4070665,-99.1679724,19.4072807,-99.1666803,19.4074689,-99.1656947,19.4075677,-99.1651772,19.4076712,-99.1646624,19.4077684,-99.1641787,19.4078805,-99.1636207,19.407952,-99.1632638,19.4082619,-99.1617182,19.4085504,-99.1602621,19.4086293,-99.1599166
4847929,Vicente Suárez,2,1,residential,yes,0.294818753128,0.294818753128,19.4128285,-99.1778978,19.4128285,-99.1778978,19.412883,-99.178011,19.4132722,-99.1787745,19.4135058,-99.1792032,19.4136997,-99.1795771,19.414082,-99.1803739
24684858,Durango,2,1,residential,yes,0.53906718883,0.53906718883,19.4199096,-99.1658853,19.4199096,-99.1658853,19.4201329,-99.1648599,19.420332,-99.1639589,19.4203616,-99.1638295,19.4204929,-99.1632271,19.4206635,-99.1624901,19.4208033,-99.1617724,19.4209923,-99.1608813
6028614,Río Ebro,,1,residential,yes,0.566130961638,0.566130961638,19.4329122,-99.1716064,19.4329122,-99.1716064,19.4327734,-99.1715397,19.4318965,-99.1710739,19.4307242,-99.1704613,19.4296351,-99.1698256,19.4283527,-99.1691674
6029128,Río Volga,,1,residential,-1,0.160256105313,0.320512210626,19.428254,-99.1683856,19.428254,-99.1683856,19.4289178,-99.1670295
6026063,Juan de la Barrera,2,1,residential,yes,0.724766588025,0.724766588025,19.4180303,-99.1781742,19.4180303,-99.1781742,19.4176276,-99.1773898,19.4171938,-99.1765524,19.4169914,-99.1761747,19.4167806,-99.1757902,19.4166784,-99.175587,19.4160281,-99.174295,19.4153886,-99.1729904,19.4149604,-99.1720822,19.4149596,-99.1720806
24690062,Tepic,1,1,residential,yes,0.901786705502,0.901786705502,19.4075458,-99.160008,19.4075458,-99.160008,19.407423,-99.1607163,19.4072929,-99.1614673,19.4071993,-99.1619543,19.4071146,-99.1623946,19.4070324,-99.1628219,19.4069136,-99.1633932,19.4068067,-99.1639065,19.4066937,-99.1644492,19.4065936,-99.1649298,19.4064939,-99.1654337,19.4063189,-99.1664572,19.40606,-99.1677201,19.4059176,-99.1684195
24690010,Queretaro,2,1,residential,yes,0.275505017144,0.275505017144,19.4142641,-99.16329,19.4142641,-99.16329,19.4142228,-99.1634488,19.4138809,-99.1650575,19.4137256,-99.1658507
6028639,Río Volga,,1,residential,,0.145408804685,0.290817609371,19.4275741,-99.1695701,19.4275741,-99.1695701,19.4281326,-99.1683169
24690019,Queretaro,2,3,primary,yes,0.942209653939,2.82662896182,19.4142641,-99.16329,19.4142641,-99.16329,19.4142888,-99.1630185,19.4145344,-99.1617625,19.4148653,-99.160318,19.4150767,-99.1590414,19.4150941,-99.1589374,19.4153395,-99.1577645,19.4155593,-99.1565755,19.4158649,-99.1550604,19.415957,-99.1545018
24685412,Orizaba,3,1,residential,yes,0.305195813757,0.305195813757,19.4242915,-99.1613025,19.4242915,-99.1613025,19.4240532,-99.161206,19.4227313,-99.1608608,19.421625,-99.1605713
4856165,Río Elba,,1,residential,,0.284349731248,0.568699462495,19.4242482,-99.1744669,19.4242482,-99.1744669,19.4242166,-99.1744605,19.4242444,-99.1744742,19.4249828,-99.1748374,19.425543,-99.1751376,19.4264785,-99.1756687
4856166,Río Atoyac,,1,residential,,0.46024015367,0.920480307341,19.4262151,-99.1721859,19.4262151,-99.1721859,19.4255737,-99.1735156,19.4249828,-99.1748374,19.4243948,-99.1761255
4856169,Río Lerma,,1,residential,yes,1.72170971484,1.72170971484,19.424962,-99.1764646,19.424962,-99.1764646,19.425543,-99.1751376,19.4258781,-99.1745005,19.4261726,-99.1738094,19.4265001,-99.173112,19.4267976,-99.1724799,19.427119,-99.1717943,19.4274102,-99.1711741,19.4277176,-99.1705196,19.4280412,-99.1698306,19.4283527,-99.1691674,19.4286326,-99.1685713,19.4289723,-99.1678481,19.4292724,-99.167209,19.4295677,-99.1665802,19.4298872,-99.1658999,19.4301396,-99.1653625,19.4305004,-99.1645942,19.4305116,-99.1645702,19.4310104,-99.1635084,19.4312379,-99.1630239,19.4315222,-99.1624803,19.4318317,-99.1617595
24690027,Manzanillo,2,1,residential,yes,1.17260548822,1.17260548822,19.4021023,-99.1638519,19.4021023,-99.1638519,19.4035718,-99.1641874,19.4045816,-99.1644255,19.40554,-99.1646644,19.406039,-99.1647875,19.4065936,-99.1649298,19.4075677,-99.1651772,19.4085959,-99.1654385,19.4091256,-99.1655731,19.4096178,-99.1656848,19.4106742,-99.1659443,19.4112605,-99.1660807,19.4116387,-99.1661693,19.4123402,-99.1663168,19.412429,-99.1663355
24690035,José Alvarado,1,1,residential,yes,0.193226436021,0.193226436021,19.412345,-99.1647085,19.412345,-99.1647085,19.4126816,-99.1629033
24684917,Puebla,2,1,residential,yes,2.10347347321,2.10347347321,19.424357,-99.1538284,19.424357,-99.1538284,19.4240278,-99.1549329,19.4238155,-99.1560754,19.4236034,-99.1570003,19.4234448,-99.1577199,19.4232812,-99.1584143,19.4232683,-99.1584765,19.4229994,-99.1596451,19.4227313,-99.1608608,19.422581,-99.1615469,19.4224407,-99.1622134,19.4223508,-99.1626041,19.4222805,-99.1629096,19.4221917,-99.1632946,19.4222048,-99.1634314,19.4222504,-99.1642181,19.4222192,-99.1643833,19.4220406,-99.165329,19.4216931,-99.1669211,19.4213327,-99.1685342,19.4210074,-99.1700073,19.4207219,-99.1713142,19.4203871,-99.1728472,19.4202685,-99.1733429
5122424,Río Pánuco,,1,residential,yes,1.42087453418,1.42087453418,19.4327963,-99.1631028,19.4327963,-99.1631028,19.4322445,-99.1641971,19.4317666,-99.1652218,19.4313951,-99.1659495,19.4312353,-99.1662668,19.4311098,-99.1665159,19.4308114,-99.1672199,19.4305374,-99.1678654,19.4302393,-99.1685194,19.4299203,-99.169209,19.4296351,-99.1698256,19.4293202,-99.1704784,19.428968,-99.171159,19.4286194,-99.1718779,19.4283262,-99.1724535,19.428001,-99.1731418,19.4276903,-99.1738357,19.4273844,-99.1744615,19.4271233,-99.175123,19.4270872,-99.1752144
5122426,Río Hudson,,1,residential,,0.152708318957,0.305416637913,19.4258781,-99.1745005,19.4258781,-99.1745005,19.4270193,-99.1750902,19.4271233,-99.175123
5122427,Río de la Plata,,1,residential,,0.371541418377,0.743082836753,19.4278165,-99.174698,19.4278165,-99.174698,19.4273844,-99.1744615,19.4261726,-99.1738094,19.4255737,-99.1735156,19.4248706,-99.1731453,19.4248434,-99.173131,19.424875,-99.1731359
24690044,,,1,residential,,0.0424675365806,0.0849350731611,19.417479,-99.156009,19.417479,-99.156009,19.4171049,-99.1559194
6029693,Río Támesis,,1,residential,,0.100765615404,0.201531230808,19.4316409,-99.1607761,19.4316409,-99.1607761,19.4308377,-99.1604011,19.4308091,-99.1603864
8839551,,,4,trunk,yes,0.265649621732,1.06259848693,19.4628526,-99.1901992,19.4628526,-99.1901992,19.4625792,-99.1903045,19.4623362,-99.1903978,19.4606674,-99.1910243,19.4605911,-99.1910444
4856192,Arquímedes,3,3,secondary,yes,0.696848582912,2.09054574874,19.4317655,-99.191145,19.4317655,-99.191145,19.4334378,-99.1909547,19.433619,-99.1909361,19.4336534,-99.1909326,19.4344344,-99.1907899,19.4348635,-99.190758,19.4354774,-99.1906979,19.4356087,-99.190685,19.4377626,-99.1904815,19.4379011,-99.1904652,19.4380241,-99.1904557
4856193,,,3,secondary,,0.167124903755,1.00274942253,19.4312876,-99.191209,19.4312876,-99.191209,19.4312913,-99.1911204,19.4313309,-99.1910265,19.4313908,-99.1909646,19.4314365,-99.1909388,19.4315346,-99.1909204,19.4316164,-99.1909388,19.4316646,-99.1909665,19.4317406,-99.1910589,19.4317655,-99.191145,19.431761,-99.1912336,19.4317453,-99.1912822,19.4316978,-99.1913552,19.4316528,-99.1913931,19.4315598,-99.1914287,19.4314572,-99.1914203,19.4313825,-99.1913805,19.4313468,-99.1913459,19.4313027,-99.1912705,19.4312876,-99.191209
24690050,Campeche,2,1,residential,yes,0.818500311898,0.818500311898,19.4092737,-99.1673604,19.4092737,-99.1673604,19.4092899,-99.1673026,19.4093263,-99.1671723,19.4094248,-99.1666662,19.4095001,-99.166279,19.4096178,-99.1656848,19.4099517,-99.1641076,19.4103045,-99.1622469,19.4105827,-99.1607763,19.4107697,-99.1597298
24690051,Nayarit,1,1,residential,yes,0.621139731703,0.621139731703,19.4102331,-99.1597761,19.4102331,-99.1597761,19.4100602,-99.1606441,19.4098013,-99.1621166,19.4094528,-99.1640018,19.4091256,-99.1655731
24690052,Aguascalientes,2,1,residential,yes,0.848375334988,0.848375334988,19.4097199,-99.1598204,19.4097199,-99.1598204,19.4096161,-99.1605317,19.4093136,-99.1619904,19.409002,-99.1634934,19.4089289,-99.1638673,19.4088134,-99.1643926,19.4087071,-99.164914,19.4085959,-99.1654385,19.4084954,-99.1659128,19.4084713,-99.1660263,19.4083843,-99.1664369,19.4082835,-99.1669128,19.4081487,-99.1676816,19.4081415,-99.1677228
4856198,Gutenberg,,3,secondary,yes,0.7967398314,2.3902194942,19.4331673,-99.1736963,19.4331673,-99.1736963,19.4331295,-99.1739645,19.4330356,-99.1741612,19.4329277,-99.1746399,19.4327845,-99.1752633,19.4327317,-99.1754758,19.4325203,-99.1763374,19.4325027,-99.1764052,19.4323485,-99.1770379,19.4322869,-99.1773392,19.4322362,-99.1774722,19.432168,-99.1776427,19.4320182,-99.1782405,19.4319169,-99.1786234,19.4317694,-99.1792025,19.4316175,-99.1798096,19.4314876,-99.1803116,19.4313224,-99.1810191
4856199,Horacio,,3,secondary,yes,1.46590088119,4.39770264356,19.4329937,-99.1817033,19.4329937,-99.1817033,19.4330174,-99.1818258,19.433114,-99.1834039,19.4331648,-99.1841259,19.433222,-99.1848465,19.4332765,-99.1855977,19.4333313,-99.1863575,19.4334106,-99.1872718,19.4334516,-99.1880613,19.4335196,-99.1887208,19.4335381,-99.1888596,19.4336038,-99.1896916,19.4336534,-99.1909326,19.4337261,-99.1917011,19.4338141,-99.1924935,19.4338728,-99.1933059,19.4339048,-99.1940637,19.433964,-99.1948829,19.4339794,-99.1956183
4856200,,,3,secondary,yes,0.226127952867,0.678383858601,19.4339794,-99.1956183,19.4339794,-99.1956183,19.434132,-99.1957496,19.4342486,-99.1958656,19.4343756,-99.1960863,19.4344333,-99.1962789,19.4344563,-99.1964127,19.434465,-99.1965963,19.434442,-99.1967732,19.4344066,-99.1969952,19.4343296,-99.1972046,19.4342302,-99.1973506,19.4341152,-99.1974953
5122441,Río Duero,,1,residential,,0.252985909136,0.505971818273,19.4285113,-99.1742519,19.4285113,-99.1742519,19.428332,-99.174149,19.4276903,-99.1738357,19.4265001,-99.173112
24684941,Sinaloa,2,1,residential,,0.765510208294,1.53102041659,19.4215144,-99.163612,19.4215144,-99.163612,19.421186,-99.1651149,19.421156,-99.1652546,19.4208388,-99.1667314,19.4205022,-99.1683353,19.4202604,-99.1694119,19.4201557,-99.1698216,19.4199366,-99.1707079
6026126,Matehuala,1,1,residential,,0.144888090161,0.289776180323,19.4169914,-99.1761747,19.4169914,-99.1761747,19.4181496,-99.1755321
6025616,Cadereyta,,1,residential,,0.0854102003233,0.170820400647,19.4126593,-99.1728108,19.4126593,-99.1728108,19.4123043,-99.1720922,19.412303,-99.1720895
6027670,Río Balsas,,1,residential,,0.109461558401,0.218923116802,19.4311301,-99.1726814,19.4311301,-99.1726814,19.4312745,-99.1723725,19.431556,-99.1718049,19.4315649,-99.1717482
8839578,,,4,trunk,yes,0.0308660268773,0.123464107509,19.4605911,-99.1910444,19.4605911,-99.1910444,19.4605001,-99.1910318,19.4603177,-99.1909881
24685466,Cordoba,2,1,residential,yes,1.43522414648,1.43522414648,19.4242472,-99.1601507,19.4242472,-99.1601507,19.4242104,-99.1600146,19.4241417,-99.1599218,19.4229994,-99.1596451,19.4213516,-99.1592637,19.4213251,-99.1592567,19.4201329,-99.1589427,19.4193913,-99.1587474,19.4186199,-99.1585575,19.4184014,-99.158506,19.4176975,-99.158344,19.4170646,-99.1581761,19.4161504,-99.1579505,19.4153395,-99.1577645,19.4144902,-99.1575647,19.4133959,-99.1572708,19.4124038,-99.157018,19.4117651,-99.1568364
20457383,Pino Suárez,,3,primary,yes,0.857449459558,2.57234837868,19.4316839,-99.1323383,19.4316839,-99.1323383,19.4307721,-99.1323591,19.4299217,-99.1324723,19.4290834,-99.132578,19.4285573,-99.1326572,19.4282449,-99.1327043,19.4273626,-99.132856,19.4265373,-99.1329833,19.4259694,-99.1330526,19.4258654,-99.1330647,19.4249695,-99.1331859,19.4245722,-99.1332442,19.4240012,-99.1333293
6029737,Rio Guadiana,,1,residential,yes,0.166101952243,0.166101952243,19.4312379,-99.1630239,19.4312379,-99.1630239,19.4299155,-99.1623244,19.4298961,-99.1623161
24685485,San Luis Potosi,2,3,primary,yes,0.81642196827,2.44926590481,19.4136083,-99.1621957,19.4136083,-99.1621957,19.4137254,-99.1615562,19.4140111,-99.160119,19.4142388,-99.1588306,19.4142603,-99.1587298,19.4144902,-99.1575647,19.41471,-99.1563357,19.4150096,-99.1548446,19.4150447,-99.1545722
24685488,Pomona,1,1,residential,yes,0.187623589064,0.187623589064,19.4206347,-99.1624826,19.4206347,-99.1624826,19.4206635,-99.1624901,19.4222805,-99.1629096
24684984,Tonalá,2,1,residential,yes,2.02648427057,2.02648427057,19.4215154,-99.1634795,19.4215154,-99.1634795,19.4204929,-99.1632271,19.4204521,-99.1632169,19.4192356,-99.162912,19.4185303,-99.1627232,19.417859,-99.1625572,19.4176243,-99.1625142,19.4169462,-99.1623203,19.4162749,-99.1621642,19.4153745,-99.1619441,19.4145344,-99.1617625,19.4137254,-99.1615562,19.4132568,-99.1614308,19.4131443,-99.1614016,19.412634,-99.1612934,19.4122155,-99.1611894,19.4115707,-99.1610392,19.4109744,-99.1608754,19.4105827,-99.1607763,19.4100602,-99.1606441,19.4096161,-99.1605317,19.4085504,-99.1602621,19.4080618,-99.1601385,19.4075458,-99.160008,19.407231,-99.1599276,19.4063253,-99.1596787,19.4055188,-99.1594907,19.4045278,-99.1592367,19.403699,-99.159057
24685504,Cda. de Plaza Rio de Janeiro,1,1,residential,,0.0587232177646,0.117446435529,19.4220602,-99.1611152,19.4220602,-99.1611152,19.4215407,-99.161002
6027201,Río Mississipi,,3,primary,yes,0.402890805201,1.2086724156,19.4286685,-99.1733812,19.4286685,-99.1733812,19.4283991,-99.1733678,19.428001,-99.1731418,19.4267976,-99.1724799,19.4262151,-99.1721859,19.4255743,-99.1718722,19.4256036,-99.1718774,19.4254448,-99.1717921
6031311,,,3,secondary_link,yes,0.15312265293,0.459367958789,19.4642422,-99.1574814,19.4642422,-99.1574814,19.4643421,-99.157705,19.4643841,-99.1577963,19.4648434,-99.1587948
8640976,Calzada Mexico - Tacuba,,4,trunk,yes,4.43416994184,17.7366797674,19.4582334,-99.2015049,19.4582334,-99.2015049,19.4581744,-99.2014677,19.4581762,-99.2014589,19.4581255,-99.200916,19.4581335,-99.2008653,19.4581605,-99.2006929,19.4583016,-99.2001301,19.458368,-99.1998464,19.4584453,-99.1995212,19.4585009,-99.1991384,19.4584852,-99.1988987,19.4587135,-99.1978351,19.4588348,-99.1972367,19.458862,-99.1971027,19.4589521,-99.1966585,19.4592101,-99.195459,19.4593389,-99.1948616,19.4595507,-99.1938795,19.459654,-99.1934002,19.4596455,-99.1931005,19.4596292,-99.192526,19.4596173,-99.1921055,19.4596078,-99.1917694,19.4595982,-99.191432,19.4595898,-99.1913576,19.4595858,-99.1912554,19.4595678,-99.1908026,19.4595654,-99.1901809,19.4595626,-99.1901329,19.4595049,-99.1891564,19.4594338,-99.1886703,19.4593583,-99.1883453,19.4590426,-99.1870598,19.45866,-99.1856094,19.4582994,-99.1841054,19.4580537,-99.1829771,19.4578027,-99.1823659,19.4575499,-99.1820239,19.4563925,-99.180589,19.4563119,-99.1804733,19.4558234,-99.1794637,19.4555803,-99.1790171,19.4543241,-99.1776574,19.4529023,-99.1756547,19.452354,-99.1748594,19.4523165,-99.1747925,19.4513566,-99.1733584,19.4510321,-99.1731378,19.4488805,-99.1716746,19.4484258,-99.1713654,19.4482966,-99.1712776,19.4478744,-99.1709905,19.4466657,-99.1700833,19.4462958,-99.1698295,19.4457627,-99.1694636,19.4456856,-99.1693823,19.4451852,-99.168523,19.4448034,-99.1678674,19.4444215,-99.1672131,19.4443946,-99.1671613,19.4439827,-99.1664535,19.4436304,-99.165886
24689912,Chihuahua,1,1,residential,yes,1.1531300527,1.1531300527,19.4163781,-99.1649827,19.4163781,-99.1649827,19.4166039,-99.1638895,19.4169462,-99.1623203,19.417196,-99.1609308,19.4174553,-99.1596333,19.4174655,-99.1595412,19.4176975,-99.158344,19.4179273,-99.157135,19.4182309,-99.1556599,19.4186039,-99.1542609
8839639,Calz. Legaria,,3,primary,yes,1.02139894722,3.06419684166,19.4587253,-99.1908561,19.4587253,-99.1908561,19.4585366,-99.1911396,19.4582726,-99.1915882,19.4575594,-99.1926466,19.4571404,-99.1932575,19.4568537,-99.1936755,19.456062,-99.1948299,19.4559656,-99.1949704,19.4553395,-99.1958833,19.454703,-99.1968114,19.45451,-99.1970927,19.4534727,-99.1987098,19.4534127,-99.1988072
6028285,Río Guadalquivir,,1,residential,,0.0740627165022,0.148125433004,19.4316337,-99.1717239,19.4316337,-99.1717239,19.4316761,-99.1717606,19.4322219,-99.1720575
24690689,Monclova,1,1,residential,yes,0.422827426367,0.422827426367,19.4023613,-99.163088,19.4023613,-99.163088,19.4037197,-99.1634234,19.4047368,-99.1636783,19.4056915,-99.1639038,19.4060816,-99.1640001
24697346,,,1,unclassified,,0.0395635495791,0.0791270991582,19.4255631,-99.1661383,19.4255631,-99.1661383,19.425879,-99.1663145
24690693,Puerto Mexico,1,1,residential,,0.395409867942,0.790819735884,19.4054246,-99.1652035,19.4054246,-99.1652035,19.4044717,-99.1649546,19.4034612,-99.1647233,19.4019404,-99.1643754
24690945,,,4,motorway_link,yes,0.175027985732,0.700111942926,19.4041525,-99.1565664,19.4041525,-99.1565664,19.4041737,-99.1568786,19.4041275,-99.1572024,19.4040018,-99.1577044,19.4039375,-99.1579959,19.4039157,-99.1582021
24690696,Salina Cruz,1,1,residential,yes,0.295790012569,0.295790012569,19.4017622,-99.1648303,19.4017622,-99.1648303,19.4033627,-99.1652005,19.4043733,-99.1654284
24697359,Berna,,1,residential,yes,0.134796823341,0.134796823341,19.425846,-99.1670136,19.425846,-99.1670136,19.4260737,-99.1665191,19.4266741,-99.1668099,19.4267013,-99.1668339
24690715,Iguala,1,1,residential,,0.226753480523,0.453506961045,19.4028498,-99.1676854,19.4028498,-99.1676854,19.4008584,-99.1671796
24700867,Avenida Baja California,6,3,primary,yes,2.29630192745,6.88890578235,19.4065637,-99.155236,19.4065637,-99.155236,19.4064806,-99.156876,19.4063989,-99.1582967,19.4063253,-99.1596787,19.4062856,-99.1604172,19.4062329,-99.1611672,19.4062021,-99.1617225,19.4061769,-99.1621768,19.4061531,-99.1626065,19.4061198,-99.1632064,19.4060816,-99.1640001,19.406039,-99.1647875,19.4060085,-99.1663832,19.4059764,-99.1670377,19.4059405,-99.1676902,19.405916,-99.1681353,19.4059176,-99.1684195,19.4059153,-99.1685035,19.4059122,-99.1686175,19.4058952,-99.1692729,19.4058737,-99.1700809,19.4058572,-99.1706694,19.4058352,-99.1716708,19.405835,-99.1716808,19.4058261,-99.1718606,19.4058261,-99.1718619,19.4058241,-99.1719417,19.4058135,-99.1722787,19.4057981,-99.172889,19.405768,-99.1739266,19.405755,-99.174456,19.4057409,-99.1749851,19.4057254,-99.1755342,19.4057123,-99.1759797,19.4057058,-99.1760685,19.4056362,-99.1767939,19.405623,-99.1770718
24696864,Dinamarca,,1,residential,yes,0.251908694325,0.251908694325,19.4300857,-99.1599756,19.4300857,-99.1599756,19.4287893,-99.15928,19.4280564,-99.1588901
24696866,Dinamarca,,1,residential,yes,0.323414645043,0.323414645043,19.4277164,-99.1587099,19.4277164,-99.1587099,19.426993,-99.1583475,19.426099,-99.1578997,19.4250776,-99.1573881
24690728,Presidente Miguel Alemán,,3,secondary,yes,3.53265559502,10.597966785,19.4036379,-99.1374013,19.4036379,-99.1374013,19.4037053,-99.1381981,19.4037709,-99.1391268,19.4038007,-99.1397696,19.4038041,-99.1400269,19.4038232,-99.1403266,19.40383,-99.1409292,19.403872,-99.1417547,19.4039508,-99.1426604,19.4039613,-99.1434111,19.4039852,-99.1441893,19.4040244,-99.1450007,19.4040679,-99.1459244,19.4040945,-99.1467404,19.404112,-99.1475717,19.4041306,-99.1479362,19.4041454,-99.148516,19.4041463,-99.1486665,19.4041649,-99.1501766,19.4041704,-99.1502866,19.4041743,-99.1512625,19.4041947,-99.1537248,19.40427,-99.1553056,19.4042721,-99.155339,19.4042734,-99.1553615,19.4042744,-99.1553774,19.4042633,-99.1562367,19.4042743,-99.1564826,19.4042568,-99.1567492,19.4042314,-99.1569727,19.4041992,-99.1572133,19.4040636,-99.1577157,19.4039157,-99.1582021,19.4038988,-99.1582567,19.4038706,-99.1583478,19.4038162,-99.1585933,19.403699,-99.159057,19.4034753,-99.1597404,19.4032246,-99.1604229,19.4030524,-99.1609097,19.4028922,-99.1613702,19.4026042,-99.1622983,19.4023613,-99.163088,19.4021023,-99.1638519,19.4020678,-99.1639633,19.4019404,-99.1643754,19.4017622,-99.1648303,19.401568,-99.1652938,19.4014714,-99.1655222,19.4013089,-99.1659204,19.4010775,-99.1664713,19.4010632,-99.1666672,19.4008584,-99.1671796,19.4007116,-99.1674719,19.4005922,-99.1678316,19.4005608,-99.1679924,19.400085,-99.1700021,19.4000941,-99.1701294,19.4001547,-99.1702464
24697385,Varsovia,,1,residential,yes,0.400053000738,0.400053000738,19.4260214,-99.1688142,19.4260214,-99.1688142,19.4259858,-99.1687936,19.4256435,-99.168595,19.4246657,-99.1680985,19.423783,-99.1676343,19.4229725,-99.1672086,19.4229236,-99.167205,19.4228845,-99.1671997,19.4228375,-99.1671905,19.4227689,-99.1671828
24696364,Paseo de la Reforma,4,3,primary,yes,1.82364785155,5.47094355464,19.4530329,-99.1310303,19.4530329,-99.1310303,19.4500183,-99.1333449,19.4490138,-99.134225,19.4487823,-99.1344216,19.448685,-99.1345255,19.4484004,-99.1348206,19.4480814,-99.1351208,19.4479286,-99.1352852,19.4476749,-99.1354747,19.444716,-99.1386226,19.4445542,-99.1389401,19.4444166,-99.1393006,19.4442223,-99.1395495,19.4440604,-99.1397157,19.4438444,-99.1398429,19.4435344,-99.1399529,19.4412439,-99.1424849,19.4410328,-99.1427202
24696365,,,3,primary,yes,0.0895299697161,0.268589909148,19.4235607,-99.1770924,19.4235607,-99.1770924,19.4236536,-99.1776824,19.4237008,-99.1779319
24696366,Paseo de la Reforma,,3,primary,yes,0.0931190552204,0.279357165661,19.42358,-99.177975,19.42358,-99.177975,19.4234641,-99.1770968
24696367,Paseo de la Reforma,4,3,primary,yes,0.590081438456,1.77024431537,19.4234641,-99.1770968,19.4234641,-99.1770968,19.4233661,-99.1765469,19.4233014,-99.1760069,19.4233091,-99.1756902,19.4233254,-99.1755755,19.4234094,-99.1752465,19.4249424,-99.1718721
24696840,Plaza George Washington,,1,residential,,0.132142619612,0.264285239224,19.4280564,-99.1588901,19.4280564,-99.1588901,19.4279593,-99.1589759,19.4278055,-99.1589759,19.4276921,-99.1588729,19.4277164,-99.1587099,19.4278055,-99.1585897,19.4279673,-99.1585983,19.4280402,-99.1587099,19.4280564,-99.1588901
24697400,Praga,,1,residential,-1,0.345681514044,0.691363028088,19.4253841,-99.1701477,19.4253841,-99.1701477,19.4253432,-99.1701257,19.4246892,-99.1697732,19.4245011,-99.1696744,19.4239946,-99.1694045,19.4231417,-99.1689573,19.4226749,-99.1687,19.4225926,-99.1686767
24698441,Mazatlán,2,2,tertiary,yes,1.1292839946,2.2585679892,19.4090497,-99.1799015,19.4090497,-99.1799015,19.4092022,-99.1798113,19.4099374,-99.1794101,19.4101111,-99.1793214,19.4113642,-99.1786351,19.4114847,-99.1785663,19.4116365,-99.1784766,19.4117313,-99.1784162,19.4127815,-99.1777942,19.4141692,-99.1770018,19.4155879,-99.1762709,19.4161321,-99.1758825,19.4166784,-99.175587,19.4178303,-99.1749431,19.4179136,-99.1748965,19.4180203,-99.1748006
24695882,Avenida Insurgentes Sur,,3,primary,yes,0.781932507924,2.34579752377,19.4242417,-99.1626472,19.4242417,-99.1626472,19.4252058,-99.1621622,19.42526,-99.162138,19.4256078,-99.1619824,19.4265503,-99.1615404,19.4269728,-99.1613531,19.427997,-99.1609468,19.4283866,-99.1607777,19.4300857,-99.1599756,19.4302478,-99.1598901,19.430704,-99.1596494
24697419,Oxford,,1,residential,yes,0.16700355363,0.16700355363,19.4242774,-99.1689402,19.4242774,-99.1689402,19.4247245,-99.1691746,19.425584,-99.1696312,19.4256258,-99.1696534
24698958,Acapulco,1,1,residential,yes,0.189264619993,0.189264619993,19.4209033,-99.1745366,19.4209033,-99.1745366,19.4204604,-99.1743995,19.4200725,-99.174313,19.4192408,-99.1741198
24690770,Cerrada Torreón,1,1,residential,yes,0.102672294716,0.102672294716,19.4030536,-99.1624104,19.4030536,-99.1624104,19.4032786,-99.1614621
24690772,Torreón,1,1,residential,yes,0.34225426255,0.34225426255,19.4059072,-99.1620838,19.4059072,-99.1620838,19.4057696,-99.1620323,19.4050796,-99.1618925,19.4040597,-99.1616672,19.4032786,-99.1614621,19.4028922,-99.1613702
24690776,Cerada Bajlo,,1,residential,,0.125162452488,0.250324904977,19.4041585,-99.1611568,19.4041585,-99.1611568,19.4030524,-99.1609097
24696923,Versalles,,1,residential,yes,0.86268368334,0.86268368334,19.4326563,-99.154504,19.4326563,-99.154504,19.4325879,-99.1544705,19.43212,-99.1542157,19.4320416,-99.1541916,19.4318607,-99.1541864,19.4304505,-99.1546699,19.4295465,-99.154987,19.4287056,-99.155282,19.4284044,-99.1553882,19.4275683,-99.155681,19.4270434,-99.1558651,19.4259912,-99.1562343,19.4253766,-99.1564499,19.4252836,-99.1564825
24698469,Cerrada Mazatlan,1,1,residential,,0.093082731635,0.18616546327,19.4164167,-99.1769987,19.4164167,-99.1769987,19.416035,-99.176209
24690785,Ures,1,1,residential,yes,0.367432174329,0.367432174329,19.4040636,-99.1577157,19.4040636,-99.1577157,19.4047772,-99.1579034,19.4057859,-99.1581623,19.4063989,-99.1582967,19.4068528,-99.1584171,19.4072915,-99.1585292
24690789,Ixtlan,,1,residential,,0.150502391046,0.301004782092,19.4068528,-99.1584171,19.4068528,-99.1584171,19.4068887,-99.1569847
24696945,General Prim,,1,residential,yes,0.708881884061,0.708881884061,19.43119,-99.1574561,19.43119,-99.1574561,19.4311254,-99.157211,19.4309541,-99.1565725,19.4307068,-99.1556383,19.4304505,-99.1546699,19.4300977,-99.153586,19.4296579,-99.1521274,19.4292948,-99.1510107
24701043,,3,3,primary,yes,0.359970138795,1.07991041639,19.4084581,-99.1340693,19.4084581,-99.1340693,19.4084388,-99.1346191,19.4084164,-99.1349225,19.4083954,-99.1350695,19.4082449,-99.1355237,19.4078432,-99.1362201,19.4077209,-99.1370922,19.4077032,-99.1373379
24699000,Guadalajara,2,1,residential,yes,0.613506153822,0.613506153822,19.4158487,-99.1716864,19.4158487,-99.1716864,19.4158499,-99.1716885,19.4158512,-99.1716871,19.417161,-99.1720308,19.4179363,-99.1722194,19.4181811,-99.1722789,19.4185409,-99.1723914,19.4187536,-99.1724341,19.4188923,-99.1724678,19.419301,-99.1725921,19.4195577,-99.1726645,19.4203871,-99.1728472,19.4212002,-99.1730398,19.4212347,-99.173048
24697468,Toledo,,1,residential,yes,0.275667652407,0.275667652407,19.4241564,-99.1727311,19.4241564,-99.1727311,19.4241151,-99.1727087,19.4234648,-99.1723569,19.4227607,-99.1719918,19.4219529,-99.1715795,19.4219253,-99.1715654
24696958,Roma,,1,residential,yes,0.516083828822,0.516083828822,19.4300857,-99.1599756,19.4300857,-99.1599756,19.4295457,-99.1580575,19.4295308,-99.1580082,19.4294769,-99.1578302,19.4292624,-99.1570961,19.4290623,-99.1564603,19.4289777,-99.1561809,19.4287056,-99.155282
24698496,Nuevo León,,3,primary,yes,0.0152302685996,0.0456908057988,19.4135601,-99.1717519,19.4135601,-99.1717519,19.4136189,-99.1716208
24699013,Cozumel,2,1,residential,yes,0.573722542192,0.573722542192,19.4165039,-99.1703601,19.4165039,-99.1703601,19.4175104,-99.1705611,19.4188556,-99.1708746,19.419062,-99.1709338,19.4198454,-99.1711133,19.4207219,-99.1713142,19.4215428,-99.1715058,19.4215695,-99.171512
24696971,Berlin,,1,residential,yes,0.437592779884,0.437592779884,19.4259912,-99.1562343,19.4259912,-99.1562343,19.4267091,-99.1565989,19.4276028,-99.1570663,19.4284931,-99.1575176,19.4293923,-99.1579789,19.4295457,-99.1580575
24695950,,,1,unclassified,yes,0.122398017816,0.122398017816,19.4305948,-99.1586127,19.4305948,-99.1586127,19.430851,-99.1585426,19.4310475,-99.1584336,19.4311562,-99.1582807,19.4312127,-99.1581452,19.4312696,-99.1579642,19.4313267,-99.1578573
24690831,Teocelo,1,1,residential,yes,0.203973771666,0.203973771666,19.4038162,-99.1585933,19.4038162,-99.1585933,19.4046096,-99.1587756,19.4056157,-99.159011
24697488,Tokio,,1,residential,yes,0.470294378036,0.470294378036,19.4228242,-99.1737962,19.4228242,-99.1737962,19.4234648,-99.1723569,19.4236676,-99.1719266,19.424075,-99.1710953,19.4246892,-99.1697732
24697491,Dublin,,1,residential,yes,0.0860607741284,0.0860607741284,19.424362,-99.1722951,19.424362,-99.1722951,19.4243205,-99.1722731,19.4236676,-99.1719266
24696468,Avenida Chapultepec,,3,secondary,yes,1.14297965585,3.42893896754,19.4237657,-99.1636581,19.4237657,-99.1636581,19.4235624,-99.1642768,19.4232538,-99.1656461,19.4232257,-99.165784,19.4229513,-99.1668686,19.4228845,-99.1671997,19.4225926,-99.1686767,19.4225182,-99.1690264,19.4222613,-99.1702423,19.4220449,-99.1710701,19.4220154,-99.1711576,19.4219253,-99.1715654,19.4216602,-99.1727033,19.421544,-99.173202,19.4213092,-99.1742231
24690837,Misantla,1,1,residential,yes,0.201708944746,0.201708944746,19.4056937,-99.1586223,19.4056937,-99.1586223,19.4046841,-99.1583879,19.4039157,-99.1582021
24696982,Bruselas,,1,residential,yes,0.184524962337,0.184524962337,19.4290623,-99.1564603,19.4290623,-99.1564603,19.4286877,-99.1562635,19.4281319,-99.1559723,19.4275683,-99.155681
24690839,Coatepec,1,1,residential,yes,0.192560766473,0.192560766473,19.4058915,-99.157636,19.4058915,-99.157636,19.4048739,-99.1574004,19.4041992,-99.1572133
24697498,Manchester,,1,residential,,0.0286926744581,0.0573853489163,19.4245409,-99.1719252,19.4245409,-99.1719252,19.4244924,-99.1719017,19.4243053,-99.1718113
24697371,Lancaster,,1,residential,yes,0.146339972053,0.146339972053,19.4262213,-99.1679543,19.4262213,-99.1679543,19.4261842,-99.1679356,19.4250291,-99.1673522
24697509,,,1,residential,,0.0672669975912,0.134533995182,19.4220154,-99.1711576,19.4220154,-99.1711576,19.4220447,-99.1711621,19.4225621,-99.1714338
24690854,Acayucan,1,1,residential,yes,0.196368849709,0.196368849709,19.4042568,-99.1567492,19.4042568,-99.1567492,19.4049703,-99.156922,19.4059834,-99.1571781
24697001,Londres,,1,residential,yes,0.191625742913,0.191625742913,19.4279673,-99.1585983,19.4279673,-99.1585983,19.4284931,-99.1575176,19.4287787,-99.1569869
24699053,Valladolid,2,1,residential,yes,0.651594268277,0.651594268277,19.4169092,-99.1674572,19.4169092,-99.1674572,19.41696,-99.1675112,19.4175197,-99.1676497,19.4181609,-99.1677954,19.4182501,-99.1678224,19.4182594,-99.1678252,19.4183974,-99.1678547,19.4184017,-99.1678556,19.4194616,-99.1680704,19.4196623,-99.1681341,19.4205022,-99.1683353,19.4213327,-99.1685342,19.4217555,-99.1686386,19.4221617,-99.1687543,19.4221846,-99.1687608,19.4223159,-99.1687887,19.4224452,-99.1688045,19.4225926,-99.1686767
24699071,,1,1,unclassified,,0.0704658596526,0.140931719305,19.4181811,-99.1722789,19.4181811,-99.1722789,19.4180353,-99.172932
24699072,,1,1,residential,,0.0987171000711,0.197434200142,19.4202629,-99.1753161,19.4202629,-99.1753161,19.4204604,-99.1743995
24698400,Durango,2,2,tertiary,yes,0.869902663514,1.73980532703,19.4180203,-99.1748006,19.4180203,-99.1748006,19.4180543,-99.1746762,19.4182264,-99.1738754,19.4185409,-99.1723914,19.4185891,-99.1721908,19.4186287,-99.1720482,19.4188556,-99.1708746,19.4191342,-99.1695417,19.4194616,-99.1680704,19.41982,-99.1667407
24696522,,,3,primary,yes,0.374975032275,1.12492509683,19.4246358,-99.1588362,19.4246358,-99.1588362,19.4243444,-99.1599782,19.4240532,-99.161206,19.4238064,-99.1622977
24699087,,1,1,unclassified,,0.0729985982133,0.145997196427,19.4179363,-99.1722194,19.4179363,-99.1722194,19.4177924,-99.1728977
24690897,Chilpancingo,,3,primary,yes,0.311460974289,0.934382922868,19.4032825,-99.1687291,19.4032825,-99.1687291,19.4031492,-99.1686644,19.4029133,-99.1685968,19.4027167,-99.1685494,19.4016974,-99.1682527,19.4011071,-99.1681274,19.4005608,-99.1679924
24699100,,1,1,residential,,0.031869072448,0.063738144896,19.4199366,-99.1707079,19.4199366,-99.1707079,19.4196542,-99.1706489
24690981,,,4,motorway_link,yes,0.165881369871,0.663525479483,19.4015657,-99.1924387,19.4015657,-99.1924387,19.401389,-99.1924796,19.4010481,-99.1924727,19.4007933,-99.1924975,19.40055,-99.1924727,19.4003146,-99.1924111,19.4000889,-99.1923469
24699108,,1,1,residential,,0.0342329776494,0.0684659552987,19.4202604,-99.1694119,19.4202604,-99.1694119,19.4199618,-99.1693271
24697061,Hamburgo,,1,residential,yes,1.83208164337,1.83208164337,19.4294769,-99.1578302,19.4294769,-99.1578302,19.4293923,-99.1579789,19.4287893,-99.15928,19.4281456,-99.1606737,19.427997,-99.1609468,19.4279213,-99.161141,19.4276459,-99.1617204,19.4271371,-99.1628223,19.4268309,-99.1634673,19.4265064,-99.1641337,19.4258908,-99.1654416,19.4257046,-99.16584,19.4255631,-99.1661383,19.4252976,-99.1667162,19.4252439,-99.1668331,19.4250291,-99.1673522,19.4246657,-99.1680985,19.4242774,-99.1689402,19.4239946,-99.1694045,19.4237252,-99.1699403,19.4233454,-99.170709,19.4227607,-99.1719918,19.4220948,-99.1734363
24690918,Medellín,,3,primary,yes,0.0445011345609,0.133503403683,19.4026042,-99.1622983,19.4026042,-99.1622983,19.40221,-99.1622152
24690919,Medellín,,3,primary,yes,0.103500596021,0.310501788063,19.40221,-99.1622152,19.40221,-99.1622152,19.4016805,-99.1620989,19.4015321,-99.1620875,19.4012871,-99.1621007
24697578,Biarritz,,1,residential,yes,0.102428031893,0.102428031893,19.4228921,-99.1695159,19.4228921,-99.1695159,19.4237252,-99.1699403
24690927,Viaducto,,4,motorway,yes,0.453675847051,1.81470338821,19.4091632,-99.0953248,19.4091632,-99.0953248,19.4092224,-99.0958902,19.4094265,-99.0967933,19.4094508,-99.0972837,19.4094144,-99.0975609,19.4093711,-99.0976845,19.4092518,-99.0982786,19.4091133,-99.0987637,19.4090277,-99.0991027,19.40897,-99.0992772,19.4089346,-99.0994058,19.4088803,-99.0995294
24701168,Calzada San Antonio Abad,,4,trunk,yes,0.0631750792676,0.25270031707,19.4227371,-99.1335712,19.4227371,-99.1335712,19.4223825,-99.1336331,19.4223484,-99.1336387,19.4221739,-99.1336684
24690929,,,4,motorway_link,yes,0.131000915071,0.524003660286,19.4010775,-99.1664713,19.4010775,-99.1664713,19.4009889,-99.1666053,19.4007491,-99.1672246,19.4005283,-99.1675682
24697075,Liverpool,,1,residential,yes,1.34854599518,1.34854599518,19.4284044,-99.1553882,19.4284044,-99.1553882,19.4281319,-99.1559723,19.4276028,-99.1570663,19.426993,-99.1583475,19.4263655,-99.1596846,19.4263368,-99.1597447,19.4258425,-99.1607751,19.4255933,-99.161316,19.4253311,-99.1618562,19.4252058,-99.1621622,19.4251294,-99.1623159,19.4250967,-99.1623818,19.4247045,-99.1632011,19.4240543,-99.1645143,19.4234942,-99.1657539,19.4234387,-99.165885,19.4230263,-99.1667363,19.4229513,-99.1668686
24697345,Belgrado,,1,residential,yes,0.10126375639,0.10126375639,19.4275048,-99.1657342,19.4275048,-99.1657342,19.4274651,-99.1657121,19.4266955,-99.1652847
24699126,Ocotlán,1,1,residential,yes,0.155476167212,0.155476167212,19.4214361,-99.1700802,19.4214361,-99.1700802,19.4217555,-99.1686386
24690935,,,4,motorway_link,yes,0.19432629074,0.777305162959,19.402022,-99.1637695,19.402022,-99.1637695,19.401947,-99.1640994,19.4018415,-99.1644297,19.401554,-99.1651785,19.4014714,-99.1655222
24698107,Presidente Miguel Aleman,,2,tertiary,yes,0.425683482657,0.851366965314,19.3996675,-99.1701101,19.3996675,-99.1701101,19.3999413,-99.1689597,19.4000863,-99.1681287,19.4001374,-99.1678855,19.4001855,-99.1677119,19.4002229,-99.1675695,19.4005276,-99.1666037,19.4006542,-99.1661989
24690943,,,4,motorway_link,yes,0.177225252087,0.708901008349,19.4038706,-99.1583478,19.4038706,-99.1583478,19.4037862,-99.1585381,19.4036309,-99.1590239,19.4032627,-99.159907
24690433,Alvaro Obregon,3,3,secondary,yes,1.40250000295,4.20750000884,19.4167184,-99.1672806,19.4167184,-99.1672806,19.4169391,-99.1658301,19.4171896,-99.1649613,19.4172225,-99.1647876,19.4172292,-99.1647283,19.4173028,-99.1640787,19.4176243,-99.1625142,19.4178775,-99.1610832,19.4181454,-99.1597968,19.4181666,-99.159699,19.4184014,-99.158506,19.4186591,-99.1572927,19.4189263,-99.1558422,19.4191421,-99.1548789,19.419277,-99.1542111
24698630,Alfonso Reyes,2,3,secondary,yes,0.9804276031,2.9412828093,19.4106921,-99.1808531,19.4106921,-99.1808531,19.4104684,-99.1803825,19.4100525,-99.1796216,19.4099374,-99.1794101,19.4097546,-99.1790974,19.4095156,-99.178646,19.4093154,-99.1782413,19.4092314,-99.1780714,19.4090916,-99.1777889,19.4088981,-99.1773976,19.4085542,-99.1767025,19.4084921,-99.1765768,19.4082667,-99.1761212,19.4080384,-99.1756595,19.4077425,-99.1750615,19.4074235,-99.1744165,19.4069698,-99.1734992,19.4065321,-99.1726144
24699158,Medellin,2,1,residential,yes,0.280619801706,0.280619801706,19.4227689,-99.1671828,19.4227689,-99.1671828,19.4226904,-99.1671646,19.4225657,-99.1671464,19.4225406,-99.1671423,19.4224671,-99.1671304,19.4216931,-99.1669211,19.4208388,-99.1667314,19.4202931,-99.1666144
24690455,Huatabampo,,1,residential,no,0.499691444438,0.999382888876,19.4074674,-99.1551773,19.4074674,-99.1551773,19.4073616,-99.157005,19.4073473,-99.157108,19.4072915,-99.1585292,19.407231,-99.1599276
24697391,,,1,unclassified,,0.0257049074361,0.0514098148722,19.4255383,-99.1688132,19.4255383,-99.1688132,19.4256435,-99.168595
24690461,Minatitlan,1,1,residential,,0.228175727768,0.456351455536,19.4087071,-99.164914,19.4087071,-99.164914,19.4076712,-99.1646624,19.4066937,-99.1644492
24690464,Nautla,1,1,residential,,0.228069333148,0.456138666296,19.4088134,-99.1643926,19.4088134,-99.1643926,19.4077684,-99.1641787,19.4068067,-99.1639065
24690468,Piedras Negras,,1,residential,,0.118707189889,0.237414379778,19.409002,-99.1634934,19.409002,-99.1634934,19.4084987,-99.1633833,19.407952,-99.1632638
24690469,Actopan,1,1,residential,yes,0.163790046909,0.163790046909,19.4087809,-99.1618525,19.4087809,-99.1618525,19.4084987,-99.1633833
24690986,,,4,motorway_link,yes,0.128536108999,0.514144435998,19.4036444,-99.1574203,19.4036444,-99.1574203,19.4039791,-99.1562485
24690476,Tepeji,1,1,residential,yes,0.36141388835,0.36141388835,19.4074176,-99.1635118,19.4074176,-99.1635118,19.4077795,-99.1615933,19.4080618,-99.1601385
24698158,,,4,motorway_link,yes,0.0443990363296,0.177596145319,19.398812,-99.1766784,19.398812,-99.1766784,19.39873,-99.1765704,19.3986078,-99.1764214,19.3985464,-99.1763626
24690991,,,4,motorway_link,yes,0.0934243167744,0.373697267098,19.4030731,-99.1598752,19.4030731,-99.1598752,19.4031871,-99.1589939
24690482,,,1,pedestrian,,0.162788918954,0.325577837908,19.404131,-99.1690388,19.404131,-99.1690388,19.4041916,-99.1692015,19.4042681,-99.1692641,19.404466,-99.1693579,19.4046572,-99.1693979,19.4047522,-99.1693565,19.4049963,-99.1692549,19.4051084,-99.169139,19.4051723,-99.1690321,19.4051773,-99.1688701
24700895,Avenida Dr. Ignacio Morones P.,,3,primary,,1.11156488414,6.66938930482,19.4071493,-99.1446746,19.4071493,-99.1446746,19.4070967,-99.1455437,19.4070685,-99.1463837,19.4069712,-99.1478028,19.406956,-99.1480765,19.4068846,-99.1496477,19.4068846,-99.149785,19.406803,-99.1510221,19.4067711,-99.1514763,19.4065849,-99.1537251,19.4065629,-99.1550464,19.4065671,-99.1550813,19.4065663,-99.1551174,19.4065651,-99.1551714,19.4065637,-99.155236
24691004,Cuauhtémoc,3,3,primary,yes,0.878074682302,2.63422404691,19.4038697,-99.1554371,19.4038697,-99.1554371,19.4032378,-99.1554979,19.402596,-99.1555293,19.4019828,-99.1555517,19.4018364,-99.1555557,19.4016596,-99.1555684,19.4016413,-99.1555796,19.4001329,-99.1556988,19.3996581,-99.1557183,19.3983489,-99.1558438,19.3982159,-99.1558537,19.3966173,-99.1560057,19.3959624,-99.1560459
24697149,Marsella,,1,residential,yes,0.64701538482,0.64701538482,19.4244792,-99.1614006,19.4244792,-99.1614006,19.4247347,-99.1608409,19.424965,-99.1603538,19.425458,-99.1592197,19.426099,-99.1578997,19.4267091,-99.1565989,19.4270434,-99.1558651
24698695,Cosala,1,1,residential,,0.114354123515,0.228708247031,19.4104225,-99.1799331,19.4104225,-99.1799331,19.411332,-99.1794168
24698189,Río de la Piedad,,3,secondary,yes,3.25454380493,9.76363141478,19.4032204,-99.1356666,19.4032204,-99.1356666,19.4032252,-99.1355816,19.4031903,-99.1352109,19.4031663,-99.134779,19.4031145,-99.1343408,19.403052,-99.1338277,19.4030105,-99.1332994,19.4029901,-99.1329625,19.402975,-99.1327478,19.4029332,-99.1322343,19.4028937,-99.1316592,19.4028772,-99.1312261,19.402871,-99.1311321,19.402907,-99.1305923,19.4029361,-99.130399,19.4030017,-99.1300584,19.4031383,-99.1295266,19.4033031,-99.1289576,19.4033489,-99.1287952,19.4034861,-99.1283127,19.4035812,-99.1278748,19.4036751,-99.1275352,19.403692,-99.1274742,19.4038047,-99.127067,19.4038407,-99.1269369,19.4039387,-99.1265839,19.4040187,-99.1264588,19.4040288,-99.1263835,19.4041311,-99.1257441,19.4041551,-99.1255963,19.4042107,-99.1251836,19.4042209,-99.1248181,19.404265,-99.1242229,19.4043367,-99.123888,19.4044753,-99.1232403,19.4046213,-99.1225578,19.4047118,-99.1221768,19.4046698,-99.1218454,19.4046213,-99.1214592,19.4046794,-99.121164,19.4047603,-99.1210379,19.4048479,-99.1209013,19.4049936,-99.1205923,19.405114,-99.1202306,19.4052535,-99.1194696,19.4053145,-99.1190074,19.4053378,-99.1187363,19.4053436,-99.1180585,19.4053349,-99.1172975,19.4053378,-99.1168353,19.4053407,-99.1157107,19.4053726,-99.1150483,19.4054395,-99.1145769,19.4055538,-99.1141428,19.4055799,-99.1138491,19.4054872,-99.1136421,19.4054956,-99.1133567,19.4055889,-99.1132616,19.405706,-99.1131422,19.4058255,-99.1129059,19.4059801,-99.1123158,19.4064091,-99.1101168,19.4069691,-99.1073454,19.4072416,-99.1061779,19.4073981,-99.1054441
